[{"latlon": "36.197971, 37.1656697", "name": "ALEPPO ", "region": "ALEPPO ", "longitude": "37.1656697", "arabic_name": "\u062d\u0644\u0628", "latitude": "36.197971", "id": 0}, {"latlon": "36\u00b011'19\"N 37\u00b06'8\"E", "name": "Abi Fares al-Hamdani roundabout", "region": "ALEPPO ", "longitude": "37.1022222222", "arabic_name": " \u062f\u0648\u0627\u0631 \u0627\u0628\u0648 \u0641\u0631\u0627\u0633 \u0627\u0644\u062d\u0645\u062f\u0627\u0646\u064a", "latitude": "36.1886111111", "id": 1}, {"latlon": "36\u00b011'27\"N 37\u00b06'58\"E", "name": "Akramiyah", "region": "ALEPPO ", "longitude": "37.1161111111", "arabic_name": "\u0627\u0644\u0623\u0643\u0631\u0645\u064a\u0629", "latitude": "36.1908333333", "id": 2}, {"latlon": "36\u00b010'13\"N   37\u00b07'34\"E ", "name": "Ameriyah", "region": "ALEPPO ", "longitude": "37.1261111111", "arabic_name": "\u0627\u0644\u0639\u0627\u0645\u0631\u064a\u0629", "latitude": "36.1702777778", "id": 3}, {"latlon": "36\u00b011'45\"N   37\u00b07'50\"E", "name": "Ansari", "region": "ALEPPO ", "longitude": "37.1305555556", "arabic_name": " \u0627\u0644\u0623\u0646\u0635\u0627\u0631\u064a", "latitude": "36.1958333333", "id": 4}, {"latlon": "36\u00b012'7\"N   37\u00b09'10\"E ", "name": "Aqabeh", "region": "ALEPPO ", "longitude": "37.1527777778", "arabic_name": "\u0627\u0644\u0639\u0642\u0628\u0629", "latitude": "36.2019444444", "id": 5}, {"latlon": "36\u00b012'32\"N   37\u00b09'57\"E ", "name": "Aqioul", "region": "ALEPPO ", "longitude": "37.1658333333", "arabic_name": " \u0623\u0642\u064a\u0648\u0644", "latitude": "36.2088888889", "id": 6}, {"latlon": "36\u00b012'50\"N   37\u00b010'31\"E ", "name": "Arqoub", "region": "ALEPPO ", "longitude": "37.1752777778", "arabic_name": "\u0627\u0644\u0639\u0631\u0642\u0648\u0628", "latitude": "36.2138888889", "id": 7}, {"latlon": "36\u00b013'44\"N   37\u00b08'50\"E", "name": "Ashrafiyeh", "region": "ALEPPO ", "longitude": "37.1472222222", "arabic_name": " \u0627\u0644\u0627\u0634\u0631\u0641\u064a\u0647", "latitude": "36.2288888889", "id": 8}, {"latlon": "36\u00b011'33\"N   37\u00b09'51\"E ", "name": "Asilah", "region": "ALEPPO ", "longitude": "37.1641666667", "arabic_name": " \u0623\u0635\u064a\u0644\u0629", "latitude": "36.1925", "id": 9}, {"latlon": "36\u00b011'29\"N   37\u00b07'7\"E", "name": "Azamiyeh", "region": "ALEPPO ", "longitude": "37.1186111111", "arabic_name": " \u062d\u064a \u0627\u0644\u0623\u0639\u0638\u0645\u064a\u0629", "latitude": "36.1913888889", "id": 10}, {"latlon": "36\u00b012'12\"N 37\u00b010'1\"E", "name": "Bab al-Hadid", "region": "ALEPPO ", "longitude": "37.1669444444", "arabic_name": "\u0628\u0627\u0628 \u0627\u0644\u062d\u062f\u064a\u062f", "latitude": "36.2033333333", "id": 11}, {"latlon": "36\u00b012'7\"N 37\u00b09'7\"E", "name": "Bab Jnein", "region": "ALEPPO ", "longitude": "37.1519444444", "arabic_name": "\u0628\u0627\u0628 \u062c\u0646\u064a\u0646", "latitude": "36.2019444444", "id": 12}, {"latlon": "36\u00b012'14\"N   37\u00b09'38\"E", "name": "Bab al-Nasr", "region": "ALEPPO ", "longitude": "37.1605555556", "arabic_name": " \u0628\u0627\u0628 \u0627\u0644\u0646\u0635\u0631", "latitude": "36.2038888889", "id": 13}, {"latlon": "36\u00b011'49\"N 37\u00b09'59\"E", "name": "Bab Nayrab", "region": "ALEPPO ", "longitude": "37.1663888889", "arabic_name": "\u0628\u0627\u0628 \u0627\u0644\u0646\u064a\u0631\u0628", "latitude": "36.1969444444", "id": 14}, {"latlon": "36\u00b012'34\"N 37\u00b011'55\"E", "name": "Bab Street", "region": "ALEPPO ", "longitude": "37.1986111111", "arabic_name": "\u0637\u0631\u064a\u0642 \u0627\u0644\u0628\u0627\u0628", "latitude": "36.2094444444", "id": 15}, {"latlon": "36\u00b014'6\"N 37\u00b010'59\"E", "name": "Ba'idin", "region": "ALEPPO ", "longitude": "37.1830555556", "arabic_name": "\u062d\u064a \u0628\u0639\u064a\u062f\u064a\u0646", "latitude": "36.235", "id": 16}, {"latlon": "36\u00b014'15\"N 37\u00b08'1\"E", "name": "Bani Zeid", "region": "ALEPPO ", "longitude": "37.1336111111", "arabic_name": " \u0628\u0646\u064a \u0632\u064a\u062f", "latitude": "36.2375", "id": 17}, {"latlon": "36\u00b012'18\"N 37\u00b010'6\"E", "name": "Banqusa", "region": "ALEPPO ", "longitude": "37.1683333333", "arabic_name": " \u0628\u0627\u0646\u0642\u0648\u0633\u0627", "latitude": "36.205", "id": 18}, {"latlon": "36.2386595N 37.0926547E", "name": "Balleramoun", "region": "ALEPPO ", "longitude": "37.0926547", "arabic_name": "\u062d\u064a\u0651 \u0627\u0644\u0644\u064a\u0631\u0645\u0648\u0646", "latitude": "36.2386595", "id": 19}, {"latlon": "36\u00b012'6\"N 37\u00b09'55\"E", "name": "Bayadah", "region": "ALEPPO ", "longitude": "37.1652777778", "arabic_name": "\u062d\u064a \u0627\u0644\u0628\u064a\u0627\u0636\u0629", "latitude": "36.2016666667", "id": 20}, {"latlon": "36\u00b013'32\"N 37\u00b09'55\"E", "name": "Bustan al-Basha", "region": "ALEPPO ", "longitude": "37.1652777778", "arabic_name": " \u0628\u0633\u062a\u0627\u0646 \u0628\u0627\u0634\u0627", "latitude": "36.2255555556", "id": 21}, {"latlon": "36\u00b011'56\"N 37\u00b08'17\"E", "name": "Bustan al-Zahra", "region": "ALEPPO ", "longitude": "37.1380555556", "arabic_name": " \u0628\u0633\u062a\u0627\u0646 \u0627\u0644\u0632\u0647\u0631\u0629", "latitude": "36.1988888889", "id": 22}, {"latlon": "36\u00b017'45\"N 37\u00b012'2\"E", "name": "Central Prison", "region": "ALEPPO ", "longitude": "37.2005555556", "arabic_name": " \u200f\u0627\u0644\u0628\u064a\u0627\u0636\u0629", "latitude": "36.2958333333", "id": 23}, {"latlon": "36\u00b012'8\"N 37\u00b08'17\"E", "name": "Feid", "region": "ALEPPO ", "longitude": "37.1380555556", "arabic_name": " \u0627\u0644\u0641\u064a\u0636", "latitude": "36.2022222222", "id": 24}, {"latlon": "36\u00b012'43\"N 37\u00b09'39\"E", "name": "Hamidiyeh", "region": "ALEPPO ", "longitude": "37.1608333333", "arabic_name": "\u062d\u0645\u064a\u062f\u064a\u0629", "latitude": "36.2119444444", "id": 25}, {"latlon": "36\u00b012'27\"N 37\u00b010'10\"E", "name": "Hananu Barracks", "region": "ALEPPO ", "longitude": "37.1694444444", "arabic_name": "\u0645\u0633\u0627\u0643\u0646 \u0647\u0646\u0627\u0646\u0648", "latitude": "36.2075", "id": 26}, {"latlon": "36\u00b014'8\"N 37\u00b011'32\"E", "name": "Haydariyah", "region": "ALEPPO ", "longitude": "37.1922222222", "arabic_name": " \u0627\u0644\u062d\u064a\u062f\u0631\u064a\u0647", "latitude": "36.2355555556", "id": 27}, {"latlon": "36\u00b012'33\"N 37\u00b09'29\"E", "name": "Hazzazeh", "region": "ALEPPO ", "longitude": "37.1580555556", "arabic_name": " \u0627\u0644\u0647\u0632\u0627\u0632\u0629", "latitude": "36.2091666667", "id": 28}, {"latlon": "36\u00b012'22\"N 37\u00b012'0\"E", "name": "Helwaniyah", "region": "ALEPPO ", "longitude": "37.2", "arabic_name": " \u0627\u0644\u062d\u0644\u0648\u0627\u0646\u064a\u0629", "latitude": "36.2061111111", "id": 29}, {"latlon": "36\u00b011'39\"N 37\u00b07'54\"E", "name": "Iza'ah", "region": "ALEPPO ", "longitude": "37.1316666667", "arabic_name": "\u062d\u064a \u0639\u0632\u0629", "latitude": "36.1941666667", "id": 30}, {"latlon": "36\u00b012'16\"N 37\u00b09'30\"E", "name": "Jadet al-Khandaq", "region": "ALEPPO ", "longitude": "37.1583333333", "arabic_name": " \u062c\u0627\u062f\u0629 \u0627\u0644\u062e\u0646\u062f\u0642", "latitude": "36.2044444444", "id": 31}, {"latlon": "36\u00b011'49\"N 37\u00b09'23\"E", "name": "Jalloum", "region": "ALEPPO ", "longitude": "37.1563888889", "arabic_name": "\u062c\u0627\u0645\u0639 \u062d\u0644\u0628 \u0627\u0644\u0643\u0628\u064a\u0631", "latitude": "36.1969444444", "id": 32}, {"latlon": "36\u00b012'22\"N 37\u00b06'12\"E", "name": "Jamiyat Mohandasin", "region": "ALEPPO ", "longitude": "37.1033333333", "arabic_name": "\u062c\u0645\u0639\u064a\u0629 \u0627\u0644\u0645\u0647\u0646\u062f\u0633\u064a\u0646", "latitude": "36.2061111111", "id": 33}, {"latlon": "36\u00b014'55\"N 37\u00b010'21\"E", "name": "Jandoul", "region": "ALEPPO ", "longitude": "37.1725", "arabic_name": " \u0627\u0644\u062c\u0646\u062f\u0648\u0644", "latitude": "36.2486111111", "id": 34}, {"latlon": "36\u00b011'59\"N 37\u00b011'36\"E", "name": "Jazmati", "region": "ALEPPO ", "longitude": "37.1933333333", "arabic_name": "\u062c\u0632\u0645\u0627\u062a\u064a", "latitude": "36.1997222222", "id": 35}, {"latlon": "36\u00b011'58\"N 37\u00b07'36\"E", "name": "Karah Bridge", "region": "ALEPPO ", "longitude": "37.1266666667", "arabic_name": "\u062c\u0633\u0631 \u0627\u0644\u0643\u0631\u0629", "latitude": "36.1994444444", "id": 36}, {"latlon": "36\u00b011'28\"N 37\u00b010'20\"E", "name": "Karam al-Beek", "region": "ALEPPO ", "longitude": "37.1722222222", "arabic_name": " \u0643\u0631\u0645 \u0627\u0644\u0628\u064a\u0643", "latitude": "36.1911111111", "id": 37}, {"latlon": "36\u00b012'38\"N 37\u00b010'35\"E", "name": "Karam al-Jabal", "region": "ALEPPO ", "longitude": "37.1763888889", "arabic_name": "\u0643\u0631\u0645 \u0627\u0644\u062c\u0628\u0644", "latitude": "36.2105555556", "id": 38}, {"latlon": "36\u00b011'58\"N 37\u00b010'53\"E", "name": "Karam al-Qaterji", "region": "ALEPPO ", "longitude": "37.1813888889", "arabic_name": "\u0643\u0631\u0645 \u0627\u0644\u0642\u0627\u0637\u0631\u062c\u064a", "latitude": "36.1994444444", "id": 39}, {"latlon": "36\u00b012'16\"N 37\u00b07'49\"E", "name": "Kawakibi", "region": "ALEPPO ", "longitude": "37.1302777778", "arabic_name": "\u0643\u0648\u0627\u0643\u0628\u064a", "latitude": "36.2044444444", "id": 40}, {"latlon": "36\u00b012'19\"N 37\u00b09'25\"E", "name": "Kayyali St.", "region": "ALEPPO ", "longitude": "37.1569444444", "arabic_name": " \u0627\u0644\u0643\u064a\u0627\u0644\u064a", "latitude": "36.2052777778", "id": 41}, {"latlon": "36\u00b012'3\"N 37\u00b09'19\"E", "name": "Khan al-Harir", "region": "ALEPPO ", "longitude": "37.1552777778", "arabic_name": "\u062e\u0627\u0646 \u0627\u0644\u062d\u0631\u064a\u0631", "latitude": "36.2008333333", "id": 42}, {"latlon": "36\u00b011'29\"N 37\u00b09'46\"E", "name": "Ma'adi", "region": "ALEPPO ", "longitude": "37.1627777778", "arabic_name": "\u062d\u064a \u0627\u0644\u0645\u0639\u0627\u062f\u064a", "latitude": "36.1913888889", "id": 43}, {"latlon": "36\u00b011'21\"N 37\u00b09'19\"E", "name": "Maghayer", "region": "ALEPPO ", "longitude": "37.1552777778", "arabic_name": " \u0627\u0644\u0645\u063a\u0627\u064a\u0631 ", "latitude": "36.1891666667", "id": 44}, {"latlon": "36\u00b012'25\"N 37\u00b09'8\"E", "name": "Manshiyah al-Qadimeh", "region": "ALEPPO ", "longitude": "37.1522222222", "arabic_name": " \u0645\u0646\u0634\u0623\u0629 \u0627\u0644\u0643\u0627\u0638\u0645\u064a\u0629", "latitude": "36.2069444444", "id": 45}, {"latlon": "36\u00b010'57\"N 37\u00b010'31\"E", "name": "Marjeh", "region": "ALEPPO ", "longitude": "37.1752777778", "arabic_name": "\u0645\u0631\u062c\u0629", "latitude": "36.1825", "id": 46}, {"latlon": "36\u00b012'16\"N 37\u00b07'49\"E", "name": "Martini", "region": "ALEPPO ", "longitude": "37.1302777778", "arabic_name": "\u0627\u0644\u0645\u0627\u0631\u062a\u064a\u0646\u064a", "latitude": "36.2044444444", "id": 47}, {"latlon": "36\u00b012'8\"N 37\u00b012'27\"E", "name": "Masaken Shebabi", "region": "ALEPPO ", "longitude": "37.2075", "arabic_name": " \u0645\u0633\u0627\u0643\u0646 \u0634\u0628\u0627\u0628\u064a", "latitude": "36.2022222222", "id": 48}, {"latlon": "36\u00b010'41\"N 37\u00b08'1\"E", "name": "Mashad", "region": "ALEPPO ", "longitude": "37.1336111111", "arabic_name": "\u062d\u064a \u0627\u0644\u0645\u0634\u0647\u062f", "latitude": "36.1780555556", "id": 49}, {"latlon": "36\u00b012'2\"N 37\u00b08'34\"E", "name": "Masharqah", "region": "ALEPPO ", "longitude": "37.1427777778", "arabic_name": "\u0645\u0634\u0627\u0631\u0642\u0629", "latitude": "36.2005555556", "id": 50}, {"latlon": "36.193637, 37.190703", "name": "Mayasser", "region": "ALEPPO ", "longitude": "37.190703", "arabic_name": "\u0645\u064a\u0633\u0631", "latitude": "36.193637", "id": 51}, {"latlon": "36\u00b012'45\"N 37\u00b09'54\"E", "name": "Maysaloun", "region": "ALEPPO ", "longitude": "37.165", "arabic_name": " \u0645\u064a\u0633\u0644\u0648\u0646", "latitude": "36.2125", "id": 52}, {"latlon": "36\u00b012'11\"N 37\u00b07'51\"E", "name": "Meridian", "region": "ALEPPO ", "longitude": "37.1308333333", "arabic_name": "\u0641\u0646\u062f\u0642 \u062f\u064a\u062f\u0645\u0627\u0646", "latitude": "36.2030555556", "id": 53}, {"latlon": "36\u00b013'11\"N 37\u00b09'57\"E", "name": "Midan", "region": "ALEPPO ", "longitude": "37.1658333333", "arabic_name": "\u062d\u064a \u0627\u0644\u0645\u064a\u062f\u0627\u0646", "latitude": "36.2197222222", "id": 54}, {"latlon": "36\u00b010'53\"N 37\u00b05'43\"E", "name": "Military Academy", "region": "ALEPPO ", "longitude": "37.0952777778", "arabic_name": " \u0627\u0644\u0643\u0644\u064a\u0647 \u0627\u0644\u062d\u0631\u0628\u064a\u0647", "latitude": "36.1813888889", "id": 55}, {"latlon": "36\u00b012'36\"N 37\u00b08'8\"E", "name": "Mohafaza", "region": "ALEPPO ", "longitude": "37.1355555556", "arabic_name": "\u0627\u0644\u0645\u062d\u0627\u0641\u0638\u0647", "latitude": "36.21", "id": 56}, {"latlon": "36\u00b013'10\"N 37\u00b07'30\"E", "name": "Mokambo", "region": "ALEPPO ", "longitude": "37.125", "arabic_name": "\u0627\u0644\u0645\u0648\u0643\u0627\u0645\u0628\u0648", "latitude": "36.2194444444", "id": 57}, {"latlon": "36\u00b012'17\"N 37\u00b010'9\"E", "name": "Mushatiyeh", "region": "ALEPPO ", "longitude": "37.1691666667", "arabic_name": "\u0627\u0644\u0645\u0634\u0627\u0637\u064a\u0629", "latitude": "36.2047222222", "id": 58}, {"latlon": "36\u00b013'18\"N 37\u00b07'45\"E", "name": "Nile St.", "region": "ALEPPO ", "longitude": "37.1291666667", "arabic_name": "\u0634\u0627\u0631\u0639 \u0627\u0644\u0646\u064a\u0644", "latitude": "36.2216666667", "id": 59}, {"latlon": "36\u00b012'9\"N 37\u00b010'25\"E", "name": "Qadi Asker", "region": "ALEPPO ", "longitude": "37.1736111111", "arabic_name": "\u0642\u0627\u0636\u064a \u0639\u0633\u0643\u0631", "latitude": "36.2025", "id": 60}, {"latlon": "36\u00b012'28\"N 37\u00b010'28\"E", "name": "Qarleq", "region": "ALEPPO ", "longitude": "37.1744444444", "arabic_name": "\u062d\u064a \u0642\u0627\u0631\u0644\u0642", "latitude": "36.2077777778", "id": 61}, {"latlon": "36\u00b012'19\"N 37\u00b09'50\"E", "name": "Qastal Mosht", "region": "ALEPPO ", "longitude": "37.1638888889", "arabic_name": "\u0642\u0633\u0637\u0644 \u0645\u0634\u0637", "latitude": "36.2052777778", "id": 62}, {"latlon": "36\u00b014'12\"N 37\u00b07'48\"E", "name": "Rasafeh", "region": "ALEPPO ", "longitude": "37.13", "arabic_name": "\u0627\u0644\u0631\u0635\u0627\u0641\u0629", "latitude": "36.2366666667", "id": 63}, {"latlon": "36\u00b09'43\"N 37\u00b03'43\"E", "name": "Rashiddin", "region": "ALEPPO ", "longitude": "37.0619444444", "arabic_name": "\u0627\u0644\u0631\u0627\u0634\u062f\u064a\u0646", "latitude": "36.1619444444", "id": 64}, {"latlon": "36\u00b012'8\"N 37\u00b09'21\"E", "name": "Sabaa Bahrat ", "region": "ALEPPO ", "longitude": "37.1558333333", "arabic_name": "\u0633\u0627\u062d\u0629 \u0627\u0644\u0633\u0628\u0639 \u0628\u062d\u0631\u0627\u062a", "latitude": "36.2022222222", "id": 65}, {"latlon": "36\u00b012'8\"N 37\u00b09'21\"E", "name": "Sabil", "region": "ALEPPO ", "longitude": "37.1558333333", "arabic_name": " \u0627\u0644\u0633\u0628\u064a\u0644", "latitude": "36.2022222222", "id": 66}, {"latlon": "36\u00b010'58\"N 37\u00b07'20\"E", "name": "Salah al-Din", "region": "ALEPPO ", "longitude": "37.1222222222", "arabic_name": "\u0635\u0644\u0627\u062d \u0627\u0644\u062f\u064a\u0646", "latitude": "36.1827777778", "id": 67}, {"latlon": "36\u00b011'2\"N 37\u00b010'2\"E", "name": "Salaheen", "region": "ALEPPO ", "longitude": "37.1672222222", "arabic_name": "\u0627\u0644\u0635\u0627\u0644\u062d\u064a\u0646", "latitude": "36.1838888889", "id": 68}, {"latlon": "36\u00b012'9\"N 37\u00b09'46\"E", "name": "Sijan St.", "region": "ALEPPO ", "longitude": "37.1627777778", "arabic_name": " \u0634\u0627\u0631\u0639 \u0627\u0644\u0633\u062c\u0646", "latitude": "36.2025", "id": 69}, {"latlon": "36\u00b011'35\"N 37\u00b06'44\"E", "name": "Sanam Bridge", "region": "ALEPPO ", "longitude": "37.1122222222", "arabic_name": "\u062c\u0633\u0631 \u0627\u0644\u0635\u0646\u0645", "latitude": "36.1930555556", "id": 70}, {"latlon": "36\u00b012'36\"N 37\u00b09'31\"E", "name": "Sayed Ali", "region": "ALEPPO ", "longitude": "37.1586111111", "arabic_name": "\u0633\u064a\u062f \u0639\u0644\u064a", "latitude": "36.21", "id": 71}, {"latlon": "36\u00b011'27\"N 37\u00b07'37\"E", "name": "Seif al-Dawleh", "region": "ALEPPO ", "longitude": "37.1269444444", "arabic_name": "\u0633\u064a\u0641 \u0627\u0644\u062f\u0648\u0644\u0629", "latitude": "36.1908333333", "id": 72}, {"latlon": "36\u00b013'1\"N 37\u00b07'3\"E", "name": "Shahba", "region": "ALEPPO ", "longitude": "37.1175", "arabic_name": "\u062d\u064a \u0627\u0644\u0634\u0647\u0628\u0627\u0621", "latitude": "36.2169444444", "id": 73}, {"latlon": "36\u00b012'32\"N 37\u00b011'8\"E", "name": "Sha'ar", "region": "ALEPPO ", "longitude": "37.1855555556", "arabic_name": " \u062d\u064a \u0627\u0644\u0634\u0639\u0627\u0631", "latitude": "36.2088888889", "id": 74}, {"latlon": "36\u00b013'25\"N 37\u00b010'29\"E", "name": "Sheikh Fares", "region": "ALEPPO ", "longitude": "37.1747222222", "arabic_name": "\u0634\u064a\u062e \u0641\u0627\u0631\u0633", "latitude": "36.2236111111", "id": 75}, {"latlon": "36\u00b013'20\"N 37\u00b011'5\"E", "name": "Sheikh Khader", "region": "ALEPPO ", "longitude": "37.1847222222", "arabic_name": "\u0634\u064a\u062e \u062e\u0636\u0631", "latitude": "36.2222222222", "id": 76}, {"latlon": "36\u00b050'55\"N 38\u00b024'32\"E", "name": "Sheirran", "region": "ALEPPO ", "longitude": "38.4088888889", "arabic_name": " \u0628\u0644\u062f\u0629 \u0634\u064a\u0631\u0627\u0646", "latitude": "36.8486111111", "id": 77}, {"latlon": "36\u00b011'52\"N 37\u00b08'51\"E", "name": "Souq al-Hal", "region": "ALEPPO ", "longitude": "37.1475", "arabic_name": "\u0633\u0648\u0642 \u0627\u0644\u0647\u0627\u0644", "latitude": "36.1977777778", "id": 78}, {"latlon": "36\u00b010'30\"N 37\u00b08'29\"E", "name": "Sukkari", "region": "ALEPPO ", "longitude": "37.1413888889", "arabic_name": "\u062d\u064a \u0627\u0644\u0633\u0643\u0631\u064a", "latitude": "36.175", "id": 79}, {"latlon": "36\u00b013'5\"N 37\u00b010'24\"E", "name": "Suleiman al-Halabi", "region": "ALEPPO ", "longitude": "37.1733333333", "arabic_name": "\u0633\u0644\u064a\u0645\u0627\u0646 \u0627\u0644\u062d\u0644\u0628\u064a", "latitude": "36.2180555556", "id": 80}, {"latlon": "36\u00b013'6\"N 37\u00b09'28\"E", "name": "Suleimaniyah", "region": "ALEPPO ", "longitude": "37.1577777778", "arabic_name": " \u0627\u0644\u0633\u0644\u064a\u0645\u0627\u0646\u064a\u0629", "latitude": "36.2183333333", "id": 81}, {"latlon": "36\u00b012'4\"N 37\u00b09'26\"E", "name": "Suweiqah", "region": "ALEPPO ", "longitude": "37.1572222222", "arabic_name": "\u062d\u064a \u0627\u0644\u0633\u0648\u064a\u0642\u0629", "latitude": "36.2011111111", "id": 82}, {"latlon": "36\u00b010'20\"N 37\u00b08'1\"E", "name": "Tal az-Zarazir", "region": "ALEPPO ", "longitude": "37.1336111111", "arabic_name": "\u062a\u0644 \u0627\u0644\u0632\u0631\u0627\u0632\u064a\u0631", "latitude": "36.1722222222", "id": 83}, {"latlon": "36\u00b012'34\"N 37\u00b07'35\"E", "name": "University Square", "region": "ALEPPO ", "longitude": "37.1263888889", "arabic_name": "\u062f\u0648\u0627\u0631 \u0627\u0644\u062c\u0627\u0645\u0639\u0629", "latitude": "36.2094444444", "id": 84}, {"latlon": "36\u00b011'21\"N 37\u00b07'59\"E", "name": "Zabadiyah", "region": "ALEPPO ", "longitude": "37.1330555556", "arabic_name": "\u062d\u064a \u0627\u0644\u0632\u0628\u062f\u064a\u0629", "latitude": "36.1891666667", "id": 85}, {"latlon": "36\u00b013'19\"N 37\u00b05'52\"E", "name": "Zahra", "region": "ALEPPO ", "longitude": "37.0977777778", "arabic_name": "\u0627\u0644\u0632\u0647\u0631\u0627\u0621", "latitude": "36.2219444444", "id": 86}, {"latlon": "36\u00b013'20\"N 37\u00b09'41\"E", "name": "Zara'a roundabout", "region": "ALEPPO ", "longitude": "37.1613888889", "arabic_name": "\u062f\u0648\u0627\u0631 \u0627\u0644\u0632\u0631\u0627\u0639\u0629", "latitude": "36.2222222222", "id": 87}, {"latlon": "35\u00b055'19\"N   36\u00b055'47\"E", "name": "Abbad ", "region": "ALEPPO ", "longitude": "36.9297222222", "arabic_name": "\u0639\u0628\u0627\u062f", "latitude": "35.9219444444", "id": 88}, {"latlon": "36.088661, 36.760865", "name": "Abbin Samaan ", "region": "ALEPPO ", "longitude": "36.760865", "arabic_name": "\u0625\u0628\u064a\u0646 \u0633\u0645\u0639\u0627\u0646", "latitude": "36.088661", "id": 89}, {"latlon": "36\u00b026'0\"N   37\u00b021'16\"E ", "name": "Ablah ", "region": "ALEPPO ", "longitude": "37.3544444444", "arabic_name": "\u0639\u0628\u0644\u0629", "latitude": "36.4333333333", "id": 90}, {"latlon": "36\u00b010'2\"N   36\u00b051'52\"E", "name": "Abzemu ", "region": "ALEPPO ", "longitude": "36.8644444444", "arabic_name": "\u0627\u0628\u0632\u0645\u0648", "latitude": "36.1672222222", "id": 91}, {"latlon": "36.2251184, 37.3261064", "name": "Afrin ", "region": "ALEPPO ", "longitude": "37.3261064", "arabic_name": "\u0639\u0641\u0631\u064a\u0646", "latitude": "36.2251184", "id": 92}, {"latlon": " 36\u00b030'31\"N   37\u00b020'3\"E", "name": "Akhtarin", "region": "ALEPPO ", "longitude": "37.3341666667", "arabic_name": "\u0627\u062e\u062a\u0631\u064a\u0646", "latitude": "36.5086111111", "id": 93}, {"latlon": "36\u00b044'30\"N   38\u00b00'39\"E ", "name": "Amarnah ", "region": "ALEPPO ", "longitude": "38.0108333333", "arabic_name": "\u062c\u0631\u0627\u0628\u0644\u0633", "latitude": "36.7416666667", "id": 94}, {"latlon": " 36\u00b028'19\"N   37\u00b043'22\"E ", "name": "Arima", "region": "ALEPPO ", "longitude": "37.7227777778", "arabic_name": "\u0627\u0644\u0639\u0631\u064a\u0645\u0629", "latitude": "36.4719444444", "id": 95}, {"latlon": "36.888067, 38.350895", "name": "Ayn al-Arab ", "region": "ALEPPO ", "longitude": "38.350895", "arabic_name": "\u0639\u064a\u0646 \u0627\u0644\u0639\u0631\u0628", "latitude": "36.888067", "id": 96}, {"latlon": "36.4596777N 37.2478955E", "name": "Ayoun ", "region": "ALEPPO ", "longitude": "37.2478955", "arabic_name": "\u0627\u0644\u0639\u064a\u0648\u0646", "latitude": "36.4596777", "id": 97}, {"latlon": "36.584381, 37.049911", "name": "Azaz ", "region": "ALEPPO ", "longitude": "37.049911", "arabic_name": "\u0639\u0632\u0627\u0632", "latitude": "36.584381", "id": 98}, {"latlon": "36.372567, 37.517489", "name": "Bab ", "region": "ALEPPO ", "longitude": "37.517489", "arabic_name": "\u0627\u0644\u0628\u0627\u0628", "latitude": "36.372567", "id": 99}, {"latlon": "36\u00b08'29\"N   36\u00b045'15\"E", "name": "Babakah ", "region": "ALEPPO ", "longitude": "36.7541666667", "arabic_name": "\u0628\u0627\u0628\u0643\u0629", "latitude": "36.1413888889", "id": 100}, {"latlon": "36.4103171N 36.8624997E", "name": "Baraj Abdullah ", "region": "ALEPPO ", "longitude": "36.8624997", "arabic_name": "\u0628\u0631\u062c \u0639\u0628\u062f\u0627\u0644\u0648", "latitude": "36.4103171", "id": 101}, {"latlon": "36\u00b013'11\"N   37\u00b00'9\"E", "name": "Bashantara ", "region": "ALEPPO ", "longitude": "37.0025", "arabic_name": "\u0628\u0634\u0627\u0646\u0637\u0631\u0629", "latitude": "36.2197222222", "id": 102}, {"latlon": "36\u00b012'9\"N   36\u00b059'37\"E", "name": "Bashqatin ", "region": "ALEPPO ", "longitude": "36.9936111111", "arabic_name": "\u0628\u0634\u0642\u0627\u062a\u064a\u0646", "latitude": "36.2025", "id": 103}, {"latlon": " 36.5915N 37.200E", "name": "Bel ", "region": "ALEPPO ", "longitude": "37.200", "arabic_name": "\u0627\u0644\u0628\u0644", "latitude": "36.5915", "id": 104}, {"latlon": "36\u00b037'57\"N   37\u00b012'48\"E", "name": "Braghidah ", "region": "ALEPPO ", "longitude": "37.2133333333", "arabic_name": "\u0628\u0631\u0627\u063a\u064a\u062f\u0629", "latitude": "36.6325", "id": 105}, {"latlon": "36.198211, 37.075590", "name": "Darat Izzah", "region": "ALEPPO ", "longitude": "37.075590", "arabic_name": "\u062f\u0627\u0631\u0629 \u0639\u0632\u0629", "latitude": "36.198211", "id": 106}, {"latlon": "36.150353, 37.699730", "name": "Deir Hafir ", "region": "ALEPPO ", "longitude": "37.699730", "arabic_name": " \u062f\u064a\u0631 \u062d\u0627\u0641\u0631", "latitude": "36.150353", "id": 107}, {"latlon": "36\u00b040'35\"N   37\u00b045'22\"E ", "name": "Ghandawi ", "region": "ALEPPO ", "longitude": "37.7561111111", "arabic_name": "\u0627\u0644\u063a\u0646\u062f\u0648\u0631\u0629", "latitude": "36.6763888889", "id": 108}, {"latlon": "36\u00b027'52\"N   37\u00b017'32\"E ", "name": "Ghouz ", "region": "ALEPPO ", "longitude": "37.2922222222", "arabic_name": "\u062d\u0648\u0632\u0647", "latitude": "36.4644444444", "id": 109}, {"latlon": " 36.2287311N 36.9751807E", "name": "Hawwar ", "region": "ALEPPO ", "longitude": "36.9751807", "arabic_name": "\u062d\u0648\u0631", "latitude": "36.2287311", "id": 110}, {"latlon": "36\u00b033'49\"N   37\u00b015'5\"E", "name": "Ihtimalat ", "region": "ALEPPO ", "longitude": "37.2513888889", "arabic_name": "\u0627\u062d\u062a\u064a\u0645\u0644\u0627\u062a", "latitude": "36.5636111111", "id": 111}, {"latlon": "36\u00b031'3\"N   37\u00b016'4\"E ", "name": "Irshaf ", "region": "ALEPPO ", "longitude": "37.2677777778", "arabic_name": "\u0627\u0631\u0634\u0627\u0641", "latitude": "36.5175", "id": 112}, {"latlon": "36\u00b029'0\"N   37\u00b014'47\"E ", "name": "Asunbul", "region": "ALEPPO ", "longitude": "37.2463888889", "arabic_name": "\u0623\u0633\u0646\u0628\u0644", "latitude": "36.4833333333", "id": 113}, {"latlon": "35\u00b058'50\"N   36\u00b052'23\"E", "name": "Jab al-Khass ", "region": "ALEPPO ", "longitude": "36.8730555556", "arabic_name": " \u062c\u0628 \u0643\u0627\u0633", "latitude": "35.9805555556", "id": 114}, {"latlon": "36.8175, 38.0111111", "name": "Jarabulus ", "region": "ALEPPO ", "longitude": "38.0111111", "arabic_name": "\u062c\u0631\u0627\u0628\u0644\u0633", "latitude": "36.8175", "id": 115}, {"latlon": "36\u00b023'48\"N   36\u00b041'28\"E", "name": "Jindaris ", "region": "ALEPPO ", "longitude": "36.6911111111", "arabic_name": "\u062c\u0646\u062f\u064a\u0631\u0633", "latitude": "36.3966666667", "id": 116}, {"latlon": "36\u00b03'36\"N   36\u00b052'18\"E ", "name": "Kafar Aleppo ", "region": "ALEPPO ", "longitude": "36.8716666667", "arabic_name": "\u0643\u0641\u0631 \u062d\u0644\u0628", "latitude": "36.06", "id": 117}, {"latlon": "36\u00b08'25\"N   36\u00b052'23\"E ", "name": "Kafar Ameh ", "region": "ALEPPO ", "longitude": "36.8730555556", "arabic_name": "\u0643\u0641\u0631 \u0639\u0645\u0629", "latitude": "36.1402777778", "id": 118}, {"latlon": "36\u00b012'43\"N   37\u00b01'37\"E", "name": "Kafar Dael ", "region": "ALEPPO ", "longitude": "37.0269444444", "arabic_name": "\u0643\u0641\u0631 \u062f\u0627\u0639\u0644", "latitude": "36.2119444444", "id": 119}, {"latlon": "36\u00b037'51\"N   37\u00b011'3\"E", "name": "Kafar Ghan ", "region": "ALEPPO ", "longitude": "37.1841666667", "arabic_name": "\u0643\u0641\u0631 \u062e\u0627\u0646", "latitude": "36.6308333333", "id": 120}, {"latlon": " 36\u00b09'45\"N   36\u00b047'19\"E", "name": "Kafar Karmin", "region": "ALEPPO ", "longitude": "36.7886111111", "arabic_name": "\u0643\u0641\u0631 \u0643\u0631\u0645\u064a\u0646", "latitude": "36.1625", "id": 121}, {"latlon": "36\u00b09'56\"N   36\u00b058'32\"E", "name": "Kafar Naha ", "region": "ALEPPO ", "longitude": "36.9755555556", "arabic_name": "\u0643\u0641\u0631 \u0646\u0627\u0647\u0627", "latitude": "36.1655555556", "id": 122}, {"latlon": "36\u00b08'5\"N   36\u00b047'15\"E ", "name": "Kafar Naseh ", "region": "ALEPPO ", "longitude": "36.7875", "arabic_name": "\u0643\u0641\u0631 \u0646\u0627\u0635\u062d", "latitude": "36.1347222222", "id": 123}, {"latlon": "36\u00b025'15\"N   37\u00b04'25\"E ", "name": "Kafar Naya ", "region": "ALEPPO ", "longitude": "37.0736111111", "arabic_name": "\u0643\u0641\u0631 \u0646\u0627\u064a\u0627", "latitude": "36.4208333333", "id": 124}, {"latlon": "36\u00b013'51\"N   38\u00b01'14\"E ", "name": "Khafisah ", "region": "ALEPPO ", "longitude": "38.0205555556", "arabic_name": "\u0627\u0644\u062e\u0641\u0633\u0629", "latitude": "36.2308333333", "id": 125}, {"latlon": "36\u00b010'11\"N   37\u00b02'40\"E", "name": "Khan al-Asl ", "region": "ALEPPO ", "longitude": "37.0444444444", "arabic_name": "\u062e\u0627\u0646 \u0627\u0644\u0639\u0633\u0644", "latitude": "36.1697222222", "id": 126}, {"latlon": "36\u00b011'7\"N   37\u00b034'49\"E ", "name": "Kuwayris Airbase ", "region": "ALEPPO ", "longitude": "37.5802777778", "arabic_name": "\u0645\u0637\u0627\u0631 \u0643\u0648\u064a\u0631\u0633", "latitude": "36.1852777778", "id": 127}, {"latlon": "36\u00b017'39\"N   37\u00b025'28\"E", "name": "Madiunah ", "region": "ALEPPO ", "longitude": "37.4244444444", "arabic_name": "\u0627\u0644\u0645\u062f\u064a\u0648\u0646\u0629", "latitude": "36.2941666667", "id": 128}, {"latlon": "36.5269242, 37.9559288", "name": "Manbij", "region": "ALEPPO ", "longitude": "37.9559288", "arabic_name": "\u0645\u0646\u0628\u062c", "latitude": "36.5269242", "id": 129}, {"latlon": "36\u00b011'54\"N   37\u00b03'9\"E ", "name": "Mansoura ", "region": "ALEPPO ", "longitude": "37.0525", "arabic_name": "\u0645\u0646\u0635\u0648\u0631\u0629", "latitude": "36.1983333333", "id": 130}, {"latlon": "36\u00b023'46\"N   37\u00b036'28\"E", "name": "Maqri ", "region": "ALEPPO ", "longitude": "37.6077777778", "arabic_name": "\u0627\u0644\u0645\u0642\u0631\u064a", "latitude": "36.3961111111", "id": 131}, {"latlon": "36.551N 37.0169E", "name": "Ma'ranaz ", "region": "ALEPPO ", "longitude": "37.0169", "arabic_name": "\u0645\u0631\u063a\u0646\u0627\u0632", "latitude": "36.551", "id": 132}, {"latlon": "36.4814643, 37.1968431", "name": "Mar'e", "region": "ALEPPO ", "longitude": "37.1968431", "arabic_name": "\u0645\u0627\u0631\u0639", "latitude": "36.4814643", "id": 133}, {"latlon": "36\u00b015'2\"N   37\u00b03'13\"E", "name": "Maret Artiq ", "region": "ALEPPO ", "longitude": "37.0536111111", "arabic_name": "\u0645\u0639\u0627\u0631\u0629 \u0627\u0644\u0627\u0631\u062a\u064a\u0642", "latitude": "36.2505555556", "id": 134}, {"latlon": "35.966N 37.1166E", "name": "Maryamayn ", "region": "ALEPPO ", "longitude": "37.1166", "arabic_name": "\u0645\u0631\u064a\u0645\u064a\u0646", "latitude": "35.966", "id": 135}, {"latlon": "36.3165N 37.201E", "name": "Masalmiyah ", "region": "ALEPPO ", "longitude": "37.201", "arabic_name": "\u0627\u0644\u0645\u0633\u0644\u0645\u064a\u0629", "latitude": "36.3165", "id": 136}, {"latlon": "35\u00b058'27\"N   38\u00b02'45\"E ", "name": "Maskanah ", "region": "ALEPPO ", "longitude": "38.0458333333", "arabic_name": "\u0645\u0633\u0643\u0646\u0629", "latitude": "35.9741666667", "id": 137}, {"latlon": "36\u00b038'25\"N   36\u00b052'54\"E", "name": "Midanki ", "region": "ALEPPO ", "longitude": "36.8816666667", "arabic_name": "\u0645\u064a\u062f\u0627\u0646\u0643\u064a", "latitude": "36.6402777778", "id": 138}, {"latlon": "36.0583805N 36.8525865E", "name": "Miznaz ", "region": "ALEPPO ", "longitude": "36.8525865", "arabic_name": "\u0642\u0631\u064a\u0629 \u0645\u064a\u0632\u0646\u0627\u0632", "latitude": "36.0583805", "id": 139}, {"latlon": "36.6075N 37.111E", "name": "Niyarah ", "region": "ALEPPO ", "longitude": "37.111", "arabic_name": "\u0646\u064a\u0627\u0631\u0629", "latitude": "36.6075", "id": 140}, {"latlon": "36.4814643    37.1968431", "name": "Nubl ", "region": "ALEPPO ", "longitude": "37.1968431", "arabic_name": "\u0646\u0628\u0644", "latitude": "36.4814643", "id": 141}, {"latlon": "36\u00b037'42\"N   37\u00b01'15\"E", "name": "Qastel Jendu ", "region": "ALEPPO ", "longitude": "37.0208333333", "arabic_name": "\u0642\u0633\u0637\u0644 \u062c\u0646\u062f\u0648", "latitude": "36.6283333333", "id": 142}, {"latlon": "36.597N 37.268E", "name": "Mregel", "region": "ALEPPO ", "longitude": "37.268", "arabic_name": "\u0645\u0631\u064a\u063a\u0644", "latitude": "36.597", "id": 143}, {"latlon": "36.0206411, 37.1977357", "name": "Safirah", "region": "ALEPPO ", "longitude": "37.1977357", "arabic_name": "\u0627\u0644\u0633\u0641\u064a\u0631\u0629", "latitude": "36.0206411", "id": 144}, {"latlon": "36\u00b023'54\"N   37\u00b043'9\"E", "name": "Sakriyah Kabira ", "region": "ALEPPO ", "longitude": "37.7191666667", "arabic_name": "\u0642\u0631\u064a\u0629 \u0633\u0643\u0631\u064a\u0629 \u0643\u0628\u064a\u0631\u0629", "latitude": "36.3983333333", "id": 145}, {"latlon": "36.595521N 37.3317451E", "name": "Sandarah ", "region": "ALEPPO ", "longitude": "37.3317451", "arabic_name": " \u0635\u0646\u062f\u0631\u0629", "latitude": "36.595521", "id": 146}, {"latlon": "36\u00b035'5\"N   38\u00b017'55\"E", "name": "Sarrin ", "region": "ALEPPO ", "longitude": "38.2986111111", "arabic_name": "\u062d\u064a \u0627\u0644\u0633\u0631\u064a\u0627\u0646", "latitude": "36.5847222222", "id": 147}, {"latlon": "36.6002756N 37.6131623E", "name": "Shaddar ", "region": "ALEPPO ", "longitude": "37.6131623", "arabic_name": " \u0634\u062f\u0627\u0631", "latitude": "36.6002756", "id": 148}, {"latlon": " 36\u00b047'2\"N   38\u00b02'51\"E ", "name": "Shayukh Fuqani ", "region": "ALEPPO ", "longitude": "38.0475", "arabic_name": "\u0634\u064a\u0648\u062e \u0641\u0648\u0642\u0627\u0646\u064a", "latitude": "36.7838888889", "id": 149}, {"latlon": " 36\u00b032'34\"N   37\u00b036'34\"E", "name": "Shweiha ", "region": "ALEPPO ", "longitude": "37.6094444444", "arabic_name": "\u0634\u0648\u064a\u062d\u0629", "latitude": "36.5427777778", "id": 150}, {"latlon": "36.3833N 37.3167E", "name": "Ta'anah ", "region": "ALEPPO ", "longitude": "37.3167", "arabic_name": "\u0637\u0639\u0627\u0646\u0647 ", "latitude": "36.3833", "id": 151}, {"latlon": "36\u00b020'50\"N   37\u00b031'54\"E", "name": "Tadif ", "region": "ALEPPO ", "longitude": "37.5316666667", "arabic_name": "\u062a\u0627\u062f\u0641", "latitude": "36.3472222222", "id": 152}, {"latlon": "36\u00b021'47\"N   37\u00b041'6\"E", "name": "Tafriah ", "region": "ALEPPO ", "longitude": "37.685", "arabic_name": "\u062a\u0627\u0641\u0631\u064a\u0627", "latitude": "36.3630555556", "id": 153}, {"latlon": " 35\u00b053'29\"N   36\u00b057'13\"E", "name": "Talafeh ", "region": "ALEPPO ", "longitude": "36.9536111111", "arabic_name": "\u0637\u0644\u0627\u0641\u062d", "latitude": "35.8913888889", "id": 154}, {"latlon": "36\u00b07'23\"N   37\u00b020'13\"E ", "name": "Tal Aran ", "region": "ALEPPO ", "longitude": "37.3369444444", "arabic_name": "\u062a\u0644 \u0639\u0631\u0646", "latitude": "36.1230555556", "id": 155}, {"latlon": "36\u00b017'54\"N   38\u00b02'55\"E", "name": "Tal Hodan ", "region": "ALEPPO ", "longitude": "38.0486111111", "arabic_name": "\u062a\u0644 \u062d\u0648\u0630\u0627\u0646", "latitude": "36.2983333333", "id": 156}, {"latlon": "36\u00b021'19\"N   37\u00b08'33\"E ", "name": "Tal Jabin ", "region": "ALEPPO ", "longitude": "37.1425", "arabic_name": "\u062a\u0644 \u062c\u0628\u064a\u0646", "latitude": "36.3552777778", "id": 157}, {"latlon": "36.470267, 37.0954454", "name": "Tal Rifaat", "region": "ALEPPO ", "longitude": "37.0954454", "arabic_name": "\u062a\u0644 \u0631\u0641\u0639\u062a", "latitude": "36.470267", "id": 158}, {"latlon": "36.365N 36.7333E ", "name": "Tal Sullur ", "region": "ALEPPO ", "longitude": "36.7333", "arabic_name": " \u062a\u0644 \u0633\u0644\u0648\u0631", "latitude": "36.365", "id": 159}, {"latlon": "36\u00b011'39\"N   36\u00b048'32\"E ", "name": "Tawwamah ", "region": "ALEPPO ", "longitude": "36.8088888889", "arabic_name": "\u0627\u0644\u062a\u0648\u0627\u0645\u0629", "latitude": "36.1941666667", "id": 160}, {"latlon": "36.5411567N 37.3210287E", "name": "Turkmen al-Bareh ", "region": "ALEPPO ", "longitude": "37.3210287", "arabic_name": "\u062a\u0631\u0643\u0645\u0627\u0646 \u0628\u0627\u0631\u062d", "latitude": "36.5411567", "id": 161}, {"latlon": "36.183N 36.950E", "name": "Umayjil ", "region": "ALEPPO ", "longitude": "36.950", "arabic_name": "\u0639\u0648\u064a\u062c\u0644", "latitude": "36.183", "id": 162}, {"latlon": "36\u00b08'55\"N   36\u00b057'0\"E ", "name": "Urum al-Kubra ", "region": "ALEPPO ", "longitude": "36.95", "arabic_name": "\u0627\u0648\u0631\u0645 \u0627\u0644\u0643\u0628\u0631\u0649", "latitude": "36.1486111111", "id": 163}, {"latlon": "36\u00b021'27\"N   37\u00b01'4\"E ", "name": "Zahra ", "region": "ALEPPO ", "longitude": "37.0177777778", "arabic_name": "\u0627\u0644\u0632\u0647\u0631\u0627\u0621", "latitude": "36.3575", "id": 164}, {"latlon": "35\u00b053'29\"N   36\u00b058'18\"E", "name": "Zammar ", "region": "ALEPPO ", "longitude": "36.9716666667", "arabic_name": "\u0632\u0645\u0627\u0631", "latitude": "35.8913888889", "id": 165}, {"latlon": "36\u00b04'10\"N   36\u00b058'39\"E", "name": "Zerbah ", "region": "ALEPPO ", "longitude": "36.9775", "arabic_name": "\u0632\u0631\u0628\u0647", "latitude": "36.0694444444", "id": 166}, {"latlon": "36\u00b033'23\"N   37\u00b021'41\"E", "name": "Ziadiyah ", "region": "ALEPPO ", "longitude": "37.3613888889", "arabic_name": "\u0632\u064a\u0627\u062f\u064a\u0629", "latitude": "36.5563888889", "id": 167}, {"latlon": "36.181296, 37.151284", "name": "Al-Fardos", "region": "ALEPPO ", "longitude": "37.151284", "arabic_name": "\u062d\u064a \u0627\u0644\u0641\u0631\u062f\u0648\u0633", "latitude": "36.181296", "id": 168}, {"latlon": "36.181059, 37.149289", "name": "Ashekh Saeed", "region": "ALEPPO ", "longitude": "37.149289", "arabic_name": "\u0627\u0644\u0634\u064a\u062e \u0633\u0639\u064a\u062f", "latitude": "36.181059", "id": 169}, {"latlon": "33.5130695,  36.3095814", "name": "DAMASCUS", "region": "DAMASCUS", "longitude": "36.3095814", "arabic_name": "\u062f\u0645\u0634\u0642", "latitude": "33.5130695", "id": 170}, {"latlon": "33\u00b030'55\"N   36\u00b017'47\"E", "name": "Bahsah ", "region": "DAMASCUS", "longitude": "36.2963888889", "arabic_name": "\u0627\u0644\u0628\u062d\u0635\u0629", "latitude": "33.5152777778", "id": 171}, {"latlon": " 33\u00b028'40\"N   36\u00b020'13\"E", "name": "Beit Saham ", "region": "DAMASCUS", "longitude": "36.3369444444", "arabic_name": "\u0628\u064a\u062a \u0633\u062d\u0645", "latitude": "33.4777777778", "id": 172}, {"latlon": "33\u00b029'9\"N   36\u00b018'56\"E", "name": "Daf al-Shook ", "region": "DAMASCUS", "longitude": "36.3155555556", "arabic_name": "\u062f\u0641 \u0627\u0644\u0634\u0648\u0643", "latitude": "33.4858333333", "id": 173}, {"latlon": "33\u00b030'36\"N   36\u00b016'41\"E ", "name": "Jamarek Sq ", "region": "DAMASCUS", "longitude": "36.2780555556", "arabic_name": "\u062f\u0648\u0631\u0627 \u0627\u0644\u062c\u0645\u0627\u0631\u0643", "latitude": "33.51", "id": 174}, {"latlon": "33\u00b028'14\"N   36\u00b017'19\"E ", "name": "Jouret Sherabati", "region": "DAMASCUS", "longitude": "36.2886111111", "arabic_name": "\u062c\u0648\u0631\u0629 \u0627\u0644\u0634\u0631\u0628\u062a\u064a", "latitude": "33.4705555556", "id": 175}, {"latlon": "33\u00b029'52\"N   36\u00b017'50\"E", "name": "Khairo Yassin mosque ", "region": "DAMASCUS", "longitude": "36.2972222222", "arabic_name": "\u062c\u0627\u0645\u0639 \u064a\u0627\u0633\u064a\u0646", "latitude": "33.4977777778", "id": 176}, {"latlon": "33\u00b029'39\"N   36\u00b016'17\"E", "name": "Khuzimeh mosque ", "region": "DAMASCUS", "longitude": "36.2713888889", "arabic_name": "\u062c\u0627\u0645\u0639 \u062e\u0632\u064a\u0645\u0629 \u0628\u0646 \u062b\u0627\u0628\u062a \u0627\u0644\u0627\u0646\u0635\u0627\u0631\u064a", "latitude": "33.4941666667", "id": 177}, {"latlon": "33\u00b029'8\"N   36\u00b017'52\"E ", "name": "Sakhanah Square", "region": "DAMASCUS", "longitude": "36.2977777778", "arabic_name": "\u0633\u0627\u062d\u0629 \u0627\u0644\u0633\u062e\u0627\u0646\u0629", "latitude": "33.4855555556", "id": 178}, {"latlon": "33\u00b028'35\"N   36\u00b019'47\"E", "name": "Sidi Moqdad ", "region": "DAMASCUS", "longitude": "36.3297222222", "arabic_name": "\u0633\u064a\u062f\u064a \u0645\u0642\u062f\u0627\u062f", "latitude": "33.4763888889", "id": 179}, {"latlon": "33\u00b026'31\"N   36\u00b020'59\"E ", "name": "Tishreen ", "region": "DAMASCUS", "longitude": "36.3497222222", "arabic_name": "\u062d\u064a \u062a\u0634\u0631\u064a\u0646", "latitude": "33.4419444444", "id": 180}, {"latlon": "33\u00b029'29\"N   36\u00b017'59\"E", "name": "Zein al-Abideen Mosque ", "region": "DAMASCUS", "longitude": "36.2997222222", "arabic_name": "\u062c\u0627\u0645\u0639 \u0632\u064a\u0646 \u0627\u0644\u0639\u0627\u0628\u062f\u064a\u0646", "latitude": "33.4913888889", "id": 181}, {"latlon": "33.472256, 36.302626", "name": "Yarmouk Camp", "region": "DAMASCUS", "longitude": "36.302626", "arabic_name": "\u0645\u062e\u064a\u0645 \u0627\u0644\u064a\u0631\u0645\u0648\u0643", "latitude": "33.472256", "id": 182}, {"latlon": "33.490370, 36.298458", "name": "Al Midan", "region": "DAMASCUS", "longitude": "36.298458", "arabic_name": "\u0627\u0644\u0645\u064a\u062f\u0627\u0646", "latitude": "33.490370", "id": 183}, {"latlon": "33.540021, 36.297935", "name": "Ruken Al-Din", "region": "DAMASCUS", "longitude": "36.297935", "arabic_name": "\u0631\u0643\u0646 \u0627\u0644\u062f\u064a\u0646", "latitude": "33.540021", "id": 184}, {"latlon": "33.550171, 36.349935", "name": "Qaboun", "region": "DAMASCUS", "longitude": "36.349935", "arabic_name": "\u0627\u0644\u0642\u0627\u0628\u0648\u0646", "latitude": "33.550171", "id": 185}, {"latlon": "33.556782, 36.320500", "name": "Barzeh", "region": "DAMASCUS", "longitude": "36.320500", "arabic_name": "\u0628\u0631\u0632\u0629", "latitude": "33.556782", "id": 186}, {"latlon": "33.531162, 36.336808", "name": "Jobar", "region": "DAMASCUS", "longitude": "36.336808", "arabic_name": "\u062c\u0648\u0628\u0631", "latitude": "33.531162", "id": 187}, {"latlon": "33.498282, 36.277195", "name": "Kafar souseh", "region": "DAMASCUS", "longitude": "36.277195", "arabic_name": "\u0643\u0641\u0631\u0633\u0648\u0633\u0629", "latitude": "33.498282", "id": 188}, {"latlon": "33.473512, 36.334265", "name": "Babila ", "region": "DAMASCUS", "longitude": "36.334265", "arabic_name": "\u0628\u0628\u064a\u0644\u0627", "latitude": "33.473512", "id": 189}, {"latlon": "33.461233, 36.193042", "name": "Muadamiyat Al-sham", "region": "DAMASCUS", "longitude": "36.193042", "arabic_name": "\u0645\u0639\u0636\u0645\u064a\u0629", "latitude": "33.461233", "id": 190}, {"latlon": "33.463185, 36.321541", "name": "Yalda", "region": "DAMASCUS", "longitude": "36.321541", "arabic_name": "\u064a\u0644\u062f\u0627", "latitude": "33.463185", "id": 191}, {"latlon": "33.538893, 36.365787", "name": "Irbin nahiyah ", "region": "DAMASCUS", "longitude": "36.365787", "arabic_name": "\u0639\u0631\u0628\u064a\u0646", "latitude": "33.538893", "id": 192}, {"latlon": "33.491347, 36.328719", "name": "Jaramana  ", "region": "DAMASCUS", "longitude": "36.328719", "arabic_name": "\u062c\u0631\u0645\u0627\u0646\u0627", "latitude": "33.491347", "id": 193}, {"latlon": "33.514295, 36.373479", "name": "Kafar Batna nahiyah ", "region": "DAMASCUS", "longitude": "36.373479", "arabic_name": "\u0643\u0641\u0631\u0628\u0637\u0646\u0627", "latitude": "33.514295", "id": 194}, {"latlon": "33.350602, 36.234755", "name": "Kiswah ", "region": "DAMASCUS", "longitude": "36.234755", "arabic_name": "\u0643\u0633\u0648\u0629", "latitude": "33.350602", "id": 195}, {"latlon": "33.349562, 36.233296", "name": "Kiswah nahiyah ", "region": "DAMASCUS", "longitude": "36.233296", "arabic_name": "\u0646\u0627\u062d\u064a\u0629 \u0627\u0644\u0643\u0633\u0648\u0629", "latitude": "33.349562", "id": 196}, {"latlon": "33.487240, 36.369338", "name": "Mleiha", "region": "DAMASCUS", "longitude": "36.369338", "arabic_name": "\u0645\u0644\u064a\u062d\u0629", "latitude": "33.487240", "id": 197}, {"latlon": "33.452208, 36.246869", "name": "Daraya mantiqah ", "region": "DAMASCUS", "longitude": "36.246869", "arabic_name": "\u062f\u0627\u0631\u064a\u0627 \u0627\u0644\u0628\u0644\u062f", "latitude": "33.452208", "id": 198}, {"latlon": "33.464049, 36.304439", "name": "al-Hajar al-Aswad nahiyah ", "region": "DAMASCUS", "longitude": "36.304439", "arabic_name": "\u0627\u0644\u062d\u062c\u0631 \u0627\u0644\u0627\u0633\u0648\u062f", "latitude": "33.464049", "id": 199}, {"latlon": "33.424528, 36.225035", "name": "Sahnaya nahiyah ", "region": "DAMASCUS", "longitude": "36.225035", "arabic_name": "\u0636\u0627\u062d\u064a\u0629 \u0635\u062d\u0646\u0627\u064a\u0627", "latitude": "33.424528", "id": 200}, {"latlon": "33.572677, 36.401873", "name": "Duma", "region": "DAMASCUS", "longitude": "36.401873", "arabic_name": "\u062f\u0648\u0645\u0627 \u0627\u0644\u0628\u0644\u062f", "latitude": "33.572677", "id": 201}, {"latlon": "33.528158, 36.226918", "name": "Dumayr nahiyah ", "region": "DAMASCUS", "longitude": "36.226918", "arabic_name": "\u062f\u0645\u0631", "latitude": "33.528158", "id": 202}, {"latlon": "33.566963, 36.366720", "name": "Harasta nahiyah ", "region": "DAMASCUS", "longitude": "36.366720", "arabic_name": "\u062d\u0631\u0633\u062a\u0627", "latitude": "33.566963", "id": 203}, {"latlon": "33.447539, 36.559176", "name": "Harran al-Awamid nahiyah ", "region": "DAMASCUS", "longitude": "36.559176", "arabic_name": "\u062d\u0631\u0627\u0646 \u0627\u0644\u0639\u0648\u0627\u0645\u064a\u062f", "latitude": "33.447539", "id": 204}, {"latlon": "33.513959, 36.487033", "name": "Nashabiyah nahiyah ", "region": "DAMASCUS", "longitude": "36.487033", "arabic_name": "\u0627\u0644\u0646\u0634\u0627\u0628\u064a\u0629", "latitude": "33.513959", "id": 205}, {"latlon": "33.766881, 37.683326", "name": "Sabaa Biyar nahiyah ", "region": "DAMASCUS", "longitude": "37.683326", "arabic_name": "\u0627\u0644\u0633\u0628\u0639 \u0628\u064a\u0627\u0631", "latitude": "33.766881", "id": 206}, {"latlon": "34.017341, 36.718197", "name": "an-Nabek mantiqah ", "region": "DAMASCUS", "longitude": "36.718197", "arabic_name": "\u0627\u0644\u0646\u0628\u0643", "latitude": "34.017341", "id": 207}, {"latlon": "34.083486, 36.766513", "name": "Deir Atiyah nahiyah ", "region": "DAMASCUS", "longitude": "36.766513", "arabic_name": "\u062f\u064a\u0631 \u0639\u0637\u064a\u0629", "latitude": "34.083486", "id": 208}, {"latlon": "33.433679, 36.083321", "name": "Qatana mantiqah ", "region": "DAMASCUS", "longitude": "36.083321", "arabic_name": "\u0642\u0637\u0646\u0627 \u0627\u0644\u0628\u0644\u062f", "latitude": "33.433679", "id": 209}, {"latlon": "33.310859, 35.919221", "name": "Beit Jen nahiyah ", "region": "DAMASCUS", "longitude": "35.919221", "arabic_name": "\u0628\u064a\u062a \u062c\u0646", "latitude": "33.310859", "id": 210}, {"latlon": "33.267631, 36.096783", "name": "Sa'sa' nahiyah ", "region": "DAMASCUS", "longitude": "36.096783", "arabic_name": "\u0633\u0639\u0633\u0639 \u0643\u0646\u0627\u0643\u0631", "latitude": "33.267631", "id": 211}, {"latlon": "33.548074, 36.217343", "name": "Qudsaya mantiqah ", "region": "DAMASCUS", "longitude": "36.217343", "arabic_name": "\u0642\u062f\u0633\u064a\u0627 ", "latitude": "33.548074", "id": 212}, {"latlon": "33.614235, 36.180457", "name": "Ayn al-Fijah nahiyah ", "region": "DAMASCUS", "longitude": "36.180457", "arabic_name": "\u0639\u064a\u0646 \u0627\u0644\u0641\u064a\u062c\u0629", "latitude": "33.614235", "id": 213}, {"latlon": "33.589589, 36.090539", "name": "al-Demas nahiyah ", "region": "DAMASCUS", "longitude": "36.090539", "arabic_name": "\u062f\u064a\u0645\u0627\u0633", "latitude": "33.589589", "id": 214}, {"latlon": "33.538121, 36.189802", "name": "Qudsaya nahiyah ", "region": "DAMASCUS", "longitude": "36.189802", "arabic_name": "\u0636\u0627\u062d\u064a\u0629 \u0642\u062f\u0633\u064a\u0627", "latitude": "33.538121", "id": 215}, {"latlon": "33.739756, 36.595579", "name": "Qutayfah mantiqah ", "region": "DAMASCUS", "longitude": "36.595579", "arabic_name": "\u0627\u0644\u0642\u0637\u064a\u0641\u0629", "latitude": "33.739756", "id": 216}, {"latlon": "33.808524, 36.740384", "name": "Jayrud nahiyah ", "region": "DAMASCUS", "longitude": "36.740384", "arabic_name": "\u062c\u064a\u0631\u0648\u062f", "latitude": "33.808524", "id": 217}, {"latlon": "33.844417, 36.546793", "name": "Ma'alula nahiyah ", "region": "DAMASCUS", "longitude": "36.546793", "arabic_name": "\u0645\u0639\u0644\u0648\u0644\u0627", "latitude": "33.844417", "id": 218}, {"latlon": "33.744631, 36.701223", "name": "Ruhaybah nahiyah ", "region": "DAMASCUS", "longitude": "36.701223", "arabic_name": "\u0627\u0644\u0631\u062d\u064a\u0628\u0629", "latitude": "33.744631", "id": 219}, {"latlon": "33.600798, 36.300030", "name": "at-Tal mantiqah ", "region": "DAMASCUS", "longitude": "36.300030", "arabic_name": "\u0627\u0644\u062a\u0644", "latitude": "33.600798", "id": 220}, {"latlon": "33.757190, 36.389229", "name": "Rankous nahiyah ", "region": "DAMASCUS", "longitude": "36.389229", "arabic_name": "\u0631\u0646\u0643\u0648\u0633", "latitude": "33.757190", "id": 221}, {"latlon": "33.691231, 36.368632", "name": "Seidnaya nahiyah ", "region": "DAMASCUS", "longitude": "36.368632", "arabic_name": "\u0635\u064a\u062f\u0646\u0627\u064a\u0627", "latitude": "33.691231", "id": 222}, {"latlon": "33.966942, 36.666913", "name": "Yabrud mantiqah ", "region": "DAMASCUS", "longitude": "36.666913", "arabic_name": "\u064a\u0628\u0631\u0648\u062f", "latitude": "33.966942", "id": 223}, {"latlon": "33.866050, 36.413391", "name": "Assal al-Ward nahiyah ", "region": "DAMASCUS", "longitude": "36.413391", "arabic_name": "\u0639\u0633\u0627\u0644 \u0627\u0644\u0648\u0631\u062f", "latitude": "33.866050", "id": 224}, {"latlon": "33.724532, 36.096663", "name": "Zabadani mantiqah ", "region": "DAMASCUS", "longitude": "36.096663", "arabic_name": "\u0632\u0628\u062f\u0627\u0646\u064a", "latitude": "33.724532", "id": 225}, {"latlon": "33.687833, 36.100233", "name": "Madaya", "region": "DAMASCUS", "longitude": "36.100233", "arabic_name": "\u0645\u0636\u0627\u064a\u0627", "latitude": "33.687833", "id": 226}, {"latlon": "33.800099, 36.149995", "name": "Serghaya nahiyah ", "region": "DAMASCUS", "longitude": "36.149995", "arabic_name": "\u0633\u0631\u063a\u0627\u064a\u0627", "latitude": "33.800099", "id": 227}, {"latlon": "33\u00b043'27\"N 36\u00b05'57\"E", "name": "Az-Zabadani nahiyah ", "region": "DAMASCUS", "longitude": "36.0991666667", "arabic_name": "\u0632\u0628\u062f\u0627\u0646\u064a \u0627\u0644\u0636\u0627\u062d\u0628\u0629", "latitude": "33.7241666667", "id": 228}, {"latlon": "33\u00b032'20\"N 36\u00b014'47\"E", "name": "Dumayr nahiyah ", "region": "DAMASCUS", "longitude": "36.2463888889", "arabic_name": "\u062f\u0645\u0631", "latitude": "33.5388888889", "id": 229}, {"latlon": "33.398845, 36.452038", "name": "Ghazlaniyah nahiyah ", "region": "DAMASCUS", "longitude": "36.452038", "arabic_name": "\u063a\u0632\u0644\u0627\u0646\u064a\u0629", "latitude": "33.398845", "id": 230}, {"latlon": "33.566320, 36.366549", "name": "Harasta nahiyah ", "region": "DAMASCUS", "longitude": "36.366549", "arabic_name": "\u062d\u0631\u0633\u062a\u0627 \u0627\u0644\u0636\u0627\u062d\u064a\u0629", "latitude": "33.566320", "id": 231}, {"latlon": "33.446680, 36.558789", "name": "Harran al-Awamid nahiyah ", "region": "DAMASCUS", "longitude": "36.558789", "arabic_name": "\u062d\u0631\u0627\u0642 \u0627\u0644\u0639\u0648\u0627\u0645\u064a\u062f \u0627\u0644\u0636\u0627\u062d\u064a\u0629", "latitude": "33.446680", "id": 232}, {"latlon": "33.513601, 36.486862", "name": "Nashabiyah nahiyah ", "region": "DAMASCUS", "longitude": "36.486862", "arabic_name": "\u0636\u0627\u062d\u064a\u0629 \u0627\u0644\u0646\u0634\u0627\u0628\u064a\u0629", "latitude": "33.513601", "id": 233}, {"latlon": "34.017270, 36.716652", "name": "an-Nabek mantiqah ", "region": "DAMASCUS", "longitude": "36.716652", "arabic_name": "\u0627\u0644\u0646\u0628\u0644\u0643 \u0627\u0644\u0628\u0644\u062f", "latitude": "34.017270", "id": 234}, {"latlon": "34.083557, 36.766342", "name": "Deir Atiyah nahiyah ", "region": "DAMASCUS", "longitude": "36.766342", "arabic_name": "\u062f\u064a\u0631 \u0639\u0637\u064a\u0629 \u0627\u0644\u0636\u0627\u062d\u064a\u0629", "latitude": "34.083557", "id": 235}, {"latlon": "34\u00b01'30\"N 36\u00b044'28\"E", "name": "an-Nabek nahiyah ", "region": "DAMASCUS", "longitude": "36.7411111111", "arabic_name": "\u0627\u0644\u0646\u0628\u0643 \u0627\u0644\u0636\u0627\u062d\u064a\u0629", "latitude": "34.025", "id": 236}, {"latlon": "33.433607, 36.082892", "name": "Qatana mantiqah ", "region": "DAMASCUS", "longitude": "36.082892", "arabic_name": "\u0642\u0637\u0646\u0627 \u0627\u0644\u0628\u0644\u062f", "latitude": "33.433607", "id": 237}, {"latlon": "33.310643, 35.918706", "name": "Beit Jen nahiyah ", "region": "DAMASCUS", "longitude": "35.918706", "arabic_name": "\u0628\u064a\u062a \u062c\u0646 ", "latitude": "33.310643", "id": 238}, {"latlon": "33.433607, 36.082892", "name": "Qatana nahiyah ", "region": "DAMASCUS", "longitude": "36.082892", "arabic_name": "\u0642\u0637\u0646\u0627", "latitude": "33.433607", "id": 239}, {"latlon": "33.279919, 36.019943", "name": "Sa'sa' nahiyah ", "region": "DAMASCUS", "longitude": "36.019943", "arabic_name": "\u0633\u0639\u0633\u0639", "latitude": "33.279919", "id": 240}, {"latlon": "33.613842, 36.180221", "name": "Qudsaya mantiqah ", "region": "DAMASCUS", "longitude": "36.180221", "arabic_name": "\u0639\u064a\u0646 \u0627\u0644\u0641\u064a\u062c\u0629", "latitude": "33.613842", "id": 241}, {"latlon": "33.613842, 36.180221", "name": "Ayn al-Fijah nahiyah ", "region": "DAMASCUS", "longitude": "36.180221", "arabic_name": "\u0639\u064a\u0646 \u0627\u0644\u0641\u064a\u062c\u0629 \u0627\u0644\u0636\u0627\u062d\u064a\u0629", "latitude": "33.613842", "id": 242}, {"latlon": "33.589375, 36.090410", "name": "al-Demas nahiyah ", "region": "DAMASCUS", "longitude": "36.090410", "arabic_name": "\u0627\u0644\u062f\u064a\u0645\u0627\u0633", "latitude": "33.589375", "id": 243}, {"latlon": "33.589375, 36.090410", "name": "Qudsaya nahiyah ", "region": "DAMASCUS", "longitude": "36.090410", "arabic_name": "\u062f\u064a\u0645\u0627\u0633", "latitude": "33.589375", "id": 244}, {"latlon": "33.739471, 36.595708", "name": "Qutayfah mantiqah ", "region": "DAMASCUS", "longitude": "36.595708", "arabic_name": "\u0642\u0637\u064a\u0641\u0629", "latitude": "33.739471", "id": 245}, {"latlon": "33.844239, 36.546364", "name": "Jayrud nahiyah ", "region": "DAMASCUS", "longitude": "36.546364", "arabic_name": "\u062c\u064a\u0631\u0648\u062f", "latitude": "33.844239", "id": 246}, {"latlon": "33.844239, 36.546364", "name": "Ma'alula nahiyah ", "region": "DAMASCUS", "longitude": "36.546364", "arabic_name": "\u0645\u0639\u0644\u0648\u0644\u0627", "latitude": "33.844239", "id": 247}, {"latlon": "33.739471, 36.595708", "name": "Qutayfah nahiyah ", "region": "DAMASCUS", "longitude": "36.595708", "arabic_name": "\u0642\u0637\u064a\u0641\u0629", "latitude": "33.739471", "id": 248}, {"latlon": "33.744453, 36.701051", "name": "Ruhaybah nahiyah ", "region": "DAMASCUS", "longitude": "36.701051", "arabic_name": "\u0631\u062d\u064a\u0628\u0629", "latitude": "33.744453", "id": 249}, {"latlon": "33.599726, 36.299686", "name": "at-Tal mantiqah ", "region": "DAMASCUS", "longitude": "36.299686", "arabic_name": "\u0627\u0644\u062a\u0644", "latitude": "33.599726", "id": 250}, {"latlon": "33.756637, 36.389058", "name": "Rankous nahiyah ", "region": "DAMASCUS", "longitude": "36.389058", "arabic_name": "\u0631\u0646\u0643\u0648\u0633", "latitude": "33.756637", "id": 251}, {"latlon": "33.587570, 36.192768", "name": "Ashrafiat Wadi Barada", "region": "DAMASCUS", "longitude": "36.192768", "arabic_name": "\u0623\u0634\u0631\u0641\u064a\u0629 \u0648\u0627\u062f\u064a \u0628\u0631\u062f\u0649", "latitude": "33.587570", "id": 252}, {"latlon": "33.6246946,  36.1096623", "name": "Wadi Barada Market", "region": "DAMASCUS", "longitude": "36.1096623", "arabic_name": "\u0633\u0648\u0642 \u0648\u0627\u062f\u064a \u0628\u0631\u062f\u0649", "latitude": "33.6246946", "id": 253}, {"latlon": "33.691017, 36.368418", "name": "Seidnaya nahiyah ", "region": "DAMASCUS", "longitude": "36.368418", "arabic_name": "\u0635\u062f\u0646\u0627\u064a\u0627", "latitude": "33.691017", "id": 254}, {"latlon": "33.599726, 36.299686", "name": "at-Tal nahiyah ", "region": "DAMASCUS", "longitude": "36.299686", "arabic_name": "\u0627\u0644\u062a\u0644", "latitude": "33.599726", "id": 255}, {"latlon": "33\u00b026'35\"N   36\u00b09'17\"E", "name": "Jdaydet al-Fadel", "region": "DAMASCUS", "longitude": "36.1547222222", "arabic_name": "\u062c\u062f\u064a\u062f\u0629 \u0627\u0644\u0641\u0627\u0636\u0644", "latitude": "33.4430555556", "id": 256}, {"latlon": "33\u00b034'22\"N   36\u00b011'12\"E", "name": "Jdaydet Shibani", "region": "DAMASCUS", "longitude": "36.1866666667", "arabic_name": "\u062c\u062f\u064a\u062f\u0629 \u0627\u0644\u0634\u064a\u0628\u0627\u0646\u064a", "latitude": "33.5727777778", "id": 257}, {"latlon": "32.625457, 36.105709", "name": "DARAA ", "region": "DARAA ", "longitude": "36.105709", "arabic_name": "\u062f\u0631\u0639\u0627", "latitude": "32.625457", "id": 258}, {"latlon": "32\u00b038'22\"N   36\u00b04'50\"E", "name": "Dahiya Gharbiyah", "region": "DARAA ", "longitude": "36.0805555556", "arabic_name": "\u0627\u0644\u0636\u0627\u062d\u064a\u0629 \u0627\u0644\u063a\u0631\u0628\u064a\u0629", "latitude": "32.6394444444", "id": 259}, {"latlon": "32\u00b037'58\"N   36\u00b06'39\"E", "name": "Kashef", "region": "DARAA ", "longitude": "36.1108333333", "arabic_name": "\u0627\u0644\u0643\u0627\u0634\u0641", "latitude": "32.6327777778", "id": 260}, {"latlon": "32\u00b037'48\"N   36\u00b05'58\"E", "name": "Matar", "region": "DARAA ", "longitude": "36.0994444444", "arabic_name": "\u0645\u0637\u0631\u0628", "latitude": "32.63", "id": 261}, {"latlon": "32\u00b038'8\"N   36\u00b06'11\"E ", "name": "Qusour", "region": "DARAA ", "longitude": "36.1030555556", "arabic_name": "\u0627\u0644\u0642\u0635\u0648\u0631", "latitude": "32.6355555556", "id": 262}, {"latlon": "32\u00b037'22\"N   36\u00b05'54\"E", "name": "Sahari", "region": "DARAA ", "longitude": "36.0983333333", "arabic_name": "\u062d\u064a \u0627\u0644\u0633\u062d\u0627\u0631\u064a", "latitude": "32.6227777778", "id": 263}, {"latlon": "33\u00b09'58\"N   36\u00b017'35\"E", "name": "Arab International (European) Uni ", "region": "DARAA ", "longitude": "36.2930555556", "arabic_name": "\u0627\u0644\u062c\u0627\u0645\u0639\u0629 \u0627\u0644\u0639\u0631\u0628\u064a\u0629 \u0627\u0644\u062f\u0648\u0644\u064a\u0629", "latitude": "33.1661111111", "id": 264}, {"latlon": "32.516655, 36.474137", "name": "Bosra ", "region": "DARAA ", "longitude": "36.474137", "arabic_name": "\u0628\u0635\u0631\u0629", "latitude": "32.516655", "id": 265}, {"latlon": "32.754129, 36.129827", "name": "Dael ", "region": "DARAA ", "longitude": "36.129827", "arabic_name": "\u062f\u0627\u0639\u0644", "latitude": "32.754129", "id": 266}, {"latlon": "32.751242, 36.305180", "name": "Herak ", "region": "DARAA ", "longitude": "36.305180", "arabic_name": "\u0627\u0644\u062d\u0631\u0627\u0643", "latitude": "32.751242", "id": 267}, {"latlon": "33.015319, 36.127467", "name": "Inkhil", "region": "DARAA ", "longitude": "36.127467", "arabic_name": "\u0627\u0646\u062e\u0644", "latitude": "33.015319", "id": 268}, {"latlon": "32.844545, 36.224456", "name": "Izraa", "region": "DARAA ", "longitude": "36.224456", "arabic_name": "\u0627\u0632\u0631\u0639", "latitude": "32.844545", "id": 269}, {"latlon": "32.993616, 36.056314", "name": "jasim ", "region": "DARAA ", "longitude": "36.056314", "arabic_name": "\u062c\u0627\u0633\u0645", "latitude": "32.993616", "id": 270}, {"latlon": " 32\u00b048'32\"N   35\u00b053'37\"E", "name": "Nafiah ", "region": "DARAA ", "longitude": "35.8936111111", "arabic_name": "\u0646\u0627\u0641\u0639\u0629", "latitude": "32.8088888889", "id": 271}, {"latlon": "32.888847, 36.043096", "name": "Nawa ", "region": "DARAA ", "longitude": "36.043096", "arabic_name": "\u0646\u0648\u0649", "latitude": "32.888847", "id": 272}, {"latlon": "33.071151, 36.184115", "name": "Sanamayn ", "region": "DARAA ", "longitude": "36.184115", "arabic_name": "\u0627\u0644\u0635\u0646\u0645\u064a\u0646", "latitude": "33.071151", "id": 273}, {"latlon": "32.827996, 36.158238", "name": "Sheikh Miskin ", "region": "DARAA ", "longitude": "36.158238", "arabic_name": "\u0627\u0644\u0634\u064a\u062e \u0645\u0633\u0643\u064a\u0646", "latitude": "32.827996", "id": 274}, {"latlon": "32.737868, 36.068845", "name": "Tafas ", "region": "DARAA ", "longitude": "36.068845", "arabic_name": "\u0637\u0641\u0633", "latitude": "32.737868", "id": 275}, {"latlon": "35.3333335, 40.1499999", "name": "DEIR EZZOR ", "region": "DEIR EZZOR ", "longitude": "40.1499999", "arabic_name": "\u062f\u064a\u0631 \u0627\u0644\u0632\u0648\u0631", "latitude": "35.3333335", "id": 276}, {"latlon": "34.464422, 40.906563", "name": "Abu Kamal mantiqah ", "region": "DEIR EZZOR ", "longitude": "40.906563", "arabic_name": "\u0627\u0628\u0648 \u0643\u0627\u0645\u0644", "latitude": "34.464422", "id": 277}, {"latlon": "34.464422, 40.906563", "name": "Abu Kamal nahiyah ", "region": "DEIR EZZOR ", "longitude": "40.906563", "arabic_name": "\u0627\u0628\u0648 \u0643\u0627\u0645\u0644 \u0627\u0644\u0636\u0627\u062d\u064a\u0629", "latitude": "34.464422", "id": 278}, {"latlon": "35.321511, 40.159562", "name": "Hajez Jamyan", "region": "DEIR EZZOR ", "longitude": "40.159562", "arabic_name": "\u062d\u0627\u062c\u0632 \u062c\u0645\u064a\u0627\u0646", "latitude": "35.321511", "id": 279}, {"latlon": "34.632352, 40.828886", "name": "al-Jalaa nahiyah ", "region": "DEIR EZZOR ", "longitude": "40.828886", "arabic_name": " \u0627\u0644\u062c\u0644\u0627\u0621", "latitude": "34.632352", "id": 280}, {"latlon": "34\u00b030'58\"N 40\u00b057'16\"E", "name": "as-Souseh nahiyah ", "region": "DEIR EZZOR ", "longitude": "40.9544444444", "arabic_name": "\u0627\u0644\u0633\u0648\u0633\u0629", "latitude": "34.5161111111", "id": 281}, {"latlon": "35\u00b019'46\"N 40\u00b07'54\"E", "name": "Deir ez-Zour mantiqah ", "region": "DEIR EZZOR ", "longitude": "40.1316666667", "arabic_name": "\u062f\u064a\u0631 \u0627\u0644\u0632\u0648\u0631 \u0627\u0644\u0628\u0644\u062f", "latitude": "35.3294444444", "id": 282}, {"latlon": "35.155670, 40.425782", "name": "Busayrah nahiyah ", "region": "DEIR EZZOR ", "longitude": "40.425782", "arabic_name": "\u0645\u062f\u064a\u0646\u0629 \u0627\u0644\u0628\u0635\u064a\u0631\u0629", "latitude": "35.155670", "id": 283}, {"latlon": "35.336733, 40.142267", "name": "Deir ez-Zour nahiyah ", "region": "DEIR EZZOR ", "longitude": "40.142267", "arabic_name": "\u062f\u064a\u0631 \u0627\u0644\u0632\u0648\u0631 \u0627\u0644\u0636\u0627\u062d\u064a\u0629", "latitude": "35.336733", "id": 284}, {"latlon": "36\u00b015'21\"N 38\u00b05'44\"E", "name": "Kasra nahiyah ", "region": "DEIR EZZOR ", "longitude": "38.0955555556", "arabic_name": " \u0627\u0644\u0643\u0633\u0631\u0629", "latitude": "36.2558333333", "id": 285}, {"latlon": "35.3736502, 40.2586055", "name": "Khesham nahiyah ", "region": "DEIR EZZOR ", "longitude": "40.2586055", "arabic_name": "\u0646\u0627\u062d\u064a\u0629 \u062e\u0634\u0627\u0645", "latitude": "35.3736502", "id": 286}, {"latlon": "35.219736, 40.318666", "name": "Muhasan nahiyah ", "region": "DEIR EZZOR ", "longitude": "40.318666", "arabic_name": "\u0645\u0648\u062d\u0633\u0646", "latitude": "35.219736", "id": 287}, {"latlon": "35\u00b020'45\"N 40\u00b08'35\"E", "name": "Sour nahiyah ", "region": "DEIR EZZOR ", "longitude": "40.1430555556", "arabic_name": "\u0635\u0648\u0631", "latitude": "35.3458333333", "id": 288}, {"latlon": "35.606963, 39.821663", "name": "At-Tibni nahiyah ", "region": "DEIR EZZOR ", "longitude": "39.821663", "arabic_name": "\u0627\u0644\u062a\u0628\u0646\u064a", "latitude": "35.606963", "id": 289}, {"latlon": "35.016622, 40.449536", "name": "al-Mayadin mantiqah ", "region": "DEIR EZZOR ", "longitude": "40.449536", "arabic_name": "\u0627\u0644\u0645\u064a\u0627\u062f\u064a\u0646", "latitude": "35.016622", "id": 290}, {"latlon": "34.920228, 40.559163", "name": "Asharh nahiyah ", "region": "DEIR EZZOR ", "longitude": "40.559163", "arabic_name": " \u0627\u0644\u0639\u0634\u0627\u0631\u0629", "latitude": "34.920228", "id": 291}, {"latlon": "35.0172391, 40.5022144", "name": "Dhiban nahiyah ", "region": "DEIR EZZOR ", "longitude": "40.5022144", "arabic_name": "\u0630\u064a\u0628\u0627\u0646", "latitude": "35.0172391", "id": 292}, {"latlon": "35\u00b01'11\"N 40\u00b027'38\"E", "name": "al-Mayadin nahiyah ", "region": "DEIR EZZOR ", "longitude": "40.4605555556", "arabic_name": "\u0627\u0644\u0645\u064a\u0627\u062f\u064a\u0646", "latitude": "35.0197222222", "id": 293}, {"latlon": "35\u00b01'54\"N   40\u00b025'39\"E", "name": "Baloum ", "region": "DEIR EZZOR ", "longitude": "40.4275", "arabic_name": "\u0627\u0644\u0628\u0644\u0639\u0648\u0645", "latitude": "35.0316666667", "id": 294}, {"latlon": "35.2537415N 40.2762222E", "name": "Buomar ", "region": "DEIR EZZOR ", "longitude": "40.2762222", "arabic_name": "\u0627\u0644\u0628\u0648\u0639\u0645\u0631", "latitude": "35.2537415", "id": 295}, {"latlon": "35\u00b013'39\"N   40\u00b022'49\"E", "name": "Dahleh ", "region": "DEIR EZZOR ", "longitude": "40.3802777778", "arabic_name": "\u062f\u062d\u0644\u0629", "latitude": "35.2275", "id": 296}, {"latlon": "35\u00b040'25\"N   36\u00b00'23\"E ", "name": "Ghamam ", "region": "DEIR EZZOR ", "longitude": "36.0063888889", "arabic_name": "\u063a\u0645\u0627\u0645", "latitude": "35.6736111111", "id": 297}, {"latlon": "35\u00b019'35\"N   40\u00b012'13\"E", "name": "Hatilah ", "region": "DEIR EZZOR ", "longitude": "40.2036111111", "arabic_name": "\u062d\u0637\u0644\u0629", "latitude": "35.3263888889", "id": 298}, {"latlon": "35\u00b026'51\"N   40\u00b06'22\"E", "name": "Mahaymidah ", "region": "DEIR EZZOR ", "longitude": "40.1061111111", "arabic_name": "\u0645\u062d\u064a\u0645\u062f\u0629", "latitude": "35.4475", "id": 299}, {"latlon": "35\u00b025'56\"N   40\u00b02'38\"E", "name": "Safirat Tahtaniyah ", "region": "DEIR EZZOR ", "longitude": "40.0438888889", "arabic_name": "\u0633\u0641\u064a\u0631\u0629 \u062a\u062d\u062a\u0627\u0646\u064a", "latitude": "35.4322222222", "id": 300}, {"latlon": "34\u00b026'3\"N   40\u00b055'58\"E", "name": "Sawa'ih ", "region": "DEIR EZZOR ", "longitude": "40.9327777778", "arabic_name": "\u0627\u0644\u0635\u0648\u064a\u063a\u0629", "latitude": "34.4341666667", "id": 301}, {"latlon": "34\u00b048'36\"N   40\u00b041'41\"E", "name": "Shaitat ", "region": "DEIR EZZOR ", "longitude": "40.6947222222", "arabic_name": " \u0634\u064a\u062a\u0627\u062a", "latitude": "34.81", "id": 302}, {"latlon": "34\u00b057'58\"N   40\u00b033'12\"E", "name": "Shnan ", "region": "DEIR EZZOR ", "longitude": "40.5533333333", "arabic_name": "\u0633\u062d\u0646\u0627\u0646", "latitude": "34.9661111111", "id": 303}, {"latlon": "34\u00b059'52\"N   40\u00b027'42\"E", "name": "Taybah ", "region": "DEIR EZZOR ", "longitude": "40.4616666667", "arabic_name": "\u0637\u064a\u0628\u0629", "latitude": "34.9977777778", "id": 304}, {"latlon": "35.111271N 40.4088306E", "name": "Zabari ", "region": "DEIR EZZOR ", "longitude": "40.4088306", "arabic_name": " \u0627\u0644\u0632\u0628\u0627\u0631\u064a", "latitude": "35.111271", "id": 305}, {"latlon": "35.321511, 40.159562", "name": "Al-Sinaa ", "region": "DEIR EZZOR ", "longitude": "40.159562", "arabic_name": "\u062d\u064a \u0627\u0644\u0635\u0646\u0627\u0639\u0629", "latitude": "35.321511", "id": 306}, {"latlon": "34\u00b041'7\"N\u00a0  40\u00b050'20\"E", "name": "Hajin nahiyah ", "region": "DEIR EZZOR ", "longitude": "40.8388888889", "arabic_name": "\u0647\u062c\u064a\u0646", "latitude": "34.6852777778", "id": 307}, {"latlon": "35.135776, 36.746461", "name": "HAMA ", "region": "HAMA ", "longitude": "36.746461", "arabic_name": "\u062d\u0645\u0627\u0629", "latitude": "35.135776", "id": 308}, {"latlon": "35\u00b07'45\"N   36\u00b044'59\"E", "name": "15 March St ", "region": "HAMA ", "longitude": "36.7497222222", "arabic_name": "\u0634\u0627\u0631\u0639 15 \u0627\u0630\u0627\u0631", "latitude": "35.1291666667", "id": 309}, {"latlon": "35\u00b06'11\"N   36\u00b045'40\"E", "name": "Abi al-Fida ", "region": "HAMA ", "longitude": "36.7611111111", "arabic_name": "\u0627\u0628\u064a \u0627\u0644\u0641\u062f\u0627\u0621", "latitude": "35.1030555556", "id": 310}, {"latlon": "35\u00b08'19\"N   36\u00b045'37\"E", "name": "Amiriyah ", "region": "HAMA ", "longitude": "36.7602777778", "arabic_name": "\u062d\u064a \u0627\u0644\u0623\u0645\u064a\u0631\u064a\u0629", "latitude": "35.1386111111", "id": 311}, {"latlon": " 35\u00b07'36\"N   36\u00b045'37\"E", "name": "Aylilat ", "region": "HAMA ", "longitude": "36.7602777778", "arabic_name": "\u0627\u0644\u0639\u0644\u064a\u0644\u064a\u0627\u062a", "latitude": "35.1266666667", "id": 312}, {"latlon": "35\u00b07'38\"N   36\u00b045'9\"E ", "name": "Bab al-Balad ", "region": "HAMA ", "longitude": "36.7525", "arabic_name": "\u0628\u0627\u0628 \u0627\u0644\u0628\u0644\u062f", "latitude": "35.1272222222", "id": 313}, {"latlon": "35\u00b07'55\"N   36\u00b044'39\"E  ", "name": "Bab Qebli ", "region": "HAMA ", "longitude": "36.7441666667", "arabic_name": "\u0628\u0627\u0628 \u0642\u0628\u0644\u064a", "latitude": "35.1319444444", "id": 314}, {"latlon": "35\u00b07'30\"N   36\u00b045'6\"E", "name": "Baraziyah ", "region": "HAMA ", "longitude": "36.7516666667", "arabic_name": "\u062d\u064a \u0627\u0644\u0628\u0631\u0627\u0632\u064a\u0629", "latitude": "35.125", "id": 315}, {"latlon": "35\u00b08'9\"N   36\u00b046'21\"E", "name": "Basher al-Hafi mosque ", "region": "HAMA ", "longitude": "36.7725", "arabic_name": "\u062c\u0627\u0645\u0639 \u0628\u0634\u064a\u0631 \u0627\u0644\u062d\u0627\u0641\u064a", "latitude": "35.1358333333", "id": 316}, {"latlon": " 35\u00b07'25\"N   36\u00b044'27\"E", "name": "Bayad ", "region": "HAMA ", "longitude": "36.7408333333", "arabic_name": "\u0627\u0644\u0628\u064a\u0627\u0636", "latitude": "35.1236111111", "id": 317}, {"latlon": "35.136125, 36.754706", "name": "Burhan Souq (Hader)", "region": "HAMA ", "longitude": "36.754706", "arabic_name": "\u0633\u0648\u0642 \u0628\u0631\u0647\u0627\u0646 \u0627\u0644\u0623\u062b\u0631\u064a", "latitude": "35.136125", "id": 318}, {"latlon": "35\u00b07'52\"N   36\u00b045'8\"E", "name": "Dabagha ", "region": "HAMA ", "longitude": "36.7522222222", "arabic_name": "\u0627\u0644\u062f\u0628\u0627\u063a\u0629", "latitude": "35.1311111111", "id": 319}, {"latlon": " 35\u00b07'34\"N   36\u00b045'14\"E ", "name": "Farrayah", "region": "HAMA ", "longitude": "36.7538888889", "arabic_name": "\u062d\u064a \u0627\u0644\u0641\u0631\u0627\u064a\u0629", "latitude": "35.1261111111", "id": 320}, {"latlon": "35\u00b07'54\"N   36\u00b045'0\"E ", "name": "Haddadin Souq ", "region": "HAMA ", "longitude": "36.75", "arabic_name": "\u0633\u0648\u0642 \u0627\u0644\u062d\u062f\u0627\u062f\u064a\u0646", "latitude": "35.1316666667", "id": 321}, {"latlon": "35\u00b07'56\"N   36\u00b045'0\"E", "name": "Ibn Rashid St ", "region": "HAMA ", "longitude": "36.75", "arabic_name": "\u0634\u0627\u0631\u0639 \u0627\u0628\u0646 \u0631\u0634\u064a\u062f", "latitude": "35.1322222222", "id": 322}, {"latlon": "35\u00b08'47\"N   36\u00b045'59\"E ", "name": "Jab roundabout ", "region": "HAMA ", "longitude": "36.7663888889", "arabic_name": "\u062f\u0648\u0627\u0631 \u0627\u0644\u062c\u0628", "latitude": "35.1463888889", "id": 323}, {"latlon": "35\u00b07'25\"N   36\u00b044'33\"E", "name": "Jalaa ", "region": "HAMA ", "longitude": "36.7425", "arabic_name": "\u0627\u0644\u062c\u0644\u0627\u0621", "latitude": "35.1236111111", "id": 324}, {"latlon": "35\u00b08'4\"N   36\u00b044'13\"E", "name": "Janoob al-Thakneh ", "region": "HAMA ", "longitude": "36.7369444444", "arabic_name": "\u062c\u0646\u0648\u0628 \u0627\u0644\u062b\u0643\u0646\u0629", "latitude": "35.1344444444", "id": 325}, {"latlon": " 35\u00b08'2\"N   36\u00b044'28\"E", "name": "Jarajmeh", "region": "HAMA ", "longitude": "36.7411111111", "arabic_name": "\u062c\u0631\u0627\u062c\u0645\u0629", "latitude": "35.1338888889", "id": 326}, {"latlon": "35\u00b07'16\"N   36\u00b044'50\"E", "name": "Karam Hourani ", "region": "HAMA ", "longitude": "36.7472222222", "arabic_name": "\u0643\u0631\u0645 \u0627\u0644\u062d\u0648\u0631\u0627\u0646\u064a", "latitude": "35.1211111111", "id": 327}, {"latlon": " 35\u00b07'38\"N      36\u00b045'10\"E", "name": "Marabet", "region": "HAMA ", "longitude": "36.7527777778", "arabic_name": " \u0645\u0631\u0627\u0628\u0637", "latitude": "35.1272222222", "id": 328}, {"latlon": " 35.101864,  36.770809", "name": "Mashaa al-Tayar ", "region": "HAMA ", "longitude": "36.770809", "arabic_name": "\u0645\u0634\u0627\u0639 \u0627\u0644\u0637\u064a\u0627\u0631", "latitude": "35.101864", "id": 329}, {"latlon": " 35\u00b08'2\"N   36\u00b044'41\"E ", "name": "Al-Madena", "region": "HAMA ", "longitude": "36.7447222222", "arabic_name": "\u0627\u0644\u0645\u062f\u064a\u0646\u0629", "latitude": "35.1338888889", "id": 330}, {"latlon": "35\u00b06'51\"N   36\u00b044'24\"E", "name": "Nasr ", "region": "HAMA ", "longitude": "36.74", "arabic_name": "\u0646\u0627\u0635\u0631", "latitude": "35.1141666667", "id": 331}, {"latlon": "35\u00b08'18\"N   36\u00b045'31\"E ", "name": "Shamaliyeh ", "region": "HAMA ", "longitude": "36.7586111111", "arabic_name": "\u0627\u0644\u0634\u0645\u0627\u0644\u064a", "latitude": "35.1383333333", "id": 332}, {"latlon": "35\u00b08'3\"N   36\u00b045'55\"E", "name": "Sharqiyah ", "region": "HAMA ", "longitude": "36.7652777778", "arabic_name": "\u0627\u0644\u0634\u0631\u0642\u064a\u0629", "latitude": "35.1341666667", "id": 333}, {"latlon": "35\u00b07'44\"N   36\u00b045'28\"E ", "name": "Sheikh Alwan ", "region": "HAMA ", "longitude": "36.7577777778", "arabic_name": "\u0645\u0633\u062c\u062f \u0627\u0644\u0634\u064a\u062e \u0639\u0644\u0648\u0627\u0646", "latitude": "35.1288888889", "id": 334}, {"latlon": " 35\u00b07'34\"N   36\u00b044'48\"E ", "name": "Sheikh Anbar ", "region": "HAMA ", "longitude": "36.7466666667", "arabic_name": "\u0627\u0644\u0634\u064a\u062e \u0639\u0646\u0628\u0631", "latitude": "35.1261111111", "id": 335}, {"latlon": "35\u00b07'29\"N   36\u00b045'16\"E ", "name": "Sheikh Mohammed al-Hamid St", "region": "HAMA ", "longitude": "36.7544444444", "arabic_name": "\u0634\u0627\u0631\u0639 \u0627\u0644\u0634\u064a\u062e \u0645\u062d\u0645\u062f \u0627\u0644\u062e\u0627\u0645\u062f", "latitude": "35.1247222222", "id": 336}, {"latlon": "35\u00b07'16\"N   36\u00b045'40\"E ", "name": "Shuhada mosque ", "region": "HAMA ", "longitude": "36.7611111111", "arabic_name": "\u062c\u0627\u0645\u0639 \u0627\u0644\u0634\u0647\u062f\u0627\u0621", "latitude": "35.1211111111", "id": 337}, {"latlon": " 35\u00b07'43\"N   36\u00b045'6\"E ", "name": "Souq Taweel ", "region": "HAMA ", "longitude": "36.7516666667", "arabic_name": "\u0633\u0648\u0642 \u0627\u0644\u0637\u0648\u064a\u0644", "latitude": "35.1286111111", "id": 338}, {"latlon": "35\u00b07'25\"N   36\u00b044'10\"E ", "name": "Taawniyah ", "region": "HAMA ", "longitude": "36.7361111111", "arabic_name": "\u0627\u0644\u062a\u0648\u064a\u0646\u0629", "latitude": "35.1236111111", "id": 339}, {"latlon": "35.166N 36.783E", "name": "Tal Jibrin ", "region": "HAMA ", "longitude": "36.783", "arabic_name": "\u062a\u0644 \u062c\u0628\u064a\u0646", "latitude": "35.166", "id": 340}, {"latlon": "35\u00b04'19\"N   37\u00b019'34\"E ", "name": "Abu Hanaya ", "region": "HAMA ", "longitude": "37.3261111111", "arabic_name": "\u0623\u0628\u0648 \u0627\u0644\u062d\u0646\u0627\u064a\u0627 ", "latitude": "35.0719444444", "id": 341}, {"latlon": "35.05N 37.3833E", "name": "Abu Rimal ", "region": "HAMA ", "longitude": "37.3833", "arabic_name": " \u0642\u0631\u064a\u0629 \u0627\u0628\u0648 \u0631\u0645\u0627\u0644", "latitude": "35.05", "id": 342}, {"latlon": "35\u00b034'21\"N   36\u00b023'10\"E ", "name": "Amiqiyah ", "region": "HAMA ", "longitude": "36.3861111111", "arabic_name": "\u0645\u062f\u064a\u0646\u0629 \u0639\u0645\u064a\u0642\u0629", "latitude": "35.5725", "id": 343}, {"latlon": " 35\u00b02'25\"N   37\u00b027'43\"E ", "name": "Aqayribat ", "region": "HAMA ", "longitude": "37.4619444444", "arabic_name": "\u0639\u0642\u0628\u0631\u064a\u0627\u062a", "latitude": "35.0402777778", "id": 344}, {"latlon": " 35\u00b021'14\"N   36\u00b033'30\"E ", "name": "Arba'een ", "region": "HAMA ", "longitude": "36.5583333333", "arabic_name": "\u062d\u064a \u0645\u0634\u0627\u0639 \u0627\u0644\u0623\u0631\u0628\u0639\u064a\u0646", "latitude": "35.3538888889", "id": 345}, {"latlon": "35\u00b010'31\"N   36\u00b041'55\"E", "name": "Arzeh ", "region": "HAMA ", "longitude": "36.6986111111", "arabic_name": " \u0623\u0631\u0632\u0629", "latitude": "35.1752777778", "id": 346}, {"latlon": "35\u00b017'21\"N   36\u00b024'27\"E", "name": "Asharenah ", "region": "HAMA ", "longitude": "36.4075", "arabic_name": "\u0627\u0644\u0639\u0634\u0627\u0631\u0646\u0629", "latitude": "35.2891666667", "id": 347}, {"latlon": "34.9626 36.5752", "name": "Ashrafiyah ", "region": "HAMA ", "longitude": "36.5752", "arabic_name": "\u0623\u0634\u0631\u0641\u064a\u0629", "latitude": "34.9626", "id": 348}, {"latlon": "35\u00b011'54\"N   36\u00b029'24\"E ", "name": "Asilah ", "region": "HAMA ", "longitude": "36.49", "arabic_name": "\u0636\u064a\u0639 \u0627\u0635\u064a\u064a\u0644\u0629", "latitude": "35.1983333333", "id": 349}, {"latlon": "35\u00b019'4\"N   36\u00b026'2\"E", "name": "Aweinah ", "region": "HAMA ", "longitude": "36.4338888889", "arabic_name": "\u0635\u0628\u0627 \u0627\u0644\u0639\u0648\u064a\u0646\u0629", "latitude": "35.3177777778", "id": 350}, {"latlon": "35\u00b031'15\"N   36\u00b019'19\"E  ", "name": "Aziziyah ", "region": "HAMA ", "longitude": "36.3219444444", "arabic_name": "\u0636\u064a\u0639\u0629 \u0627\u0644\u0639\u0632\u064a\u0632\u064a\u0629", "latitude": "35.5208333333", "id": 351}, {"latlon": "35\u00b026'58\"N   36\u00b022'49\"E", "name": "Bab al-Taqah ", "region": "HAMA ", "longitude": "36.3802777778", "arabic_name": "\u0628\u0627\u0628 \u0627\u0644\u0637\u0627\u0642\u0629", "latitude": "35.4494444444", "id": 352}, {"latlon": "35\u00b042'4\"N   36\u00b043'51\"E", "name": "Babila ", "region": "HAMA ", "longitude": "36.7308333333", "arabic_name": "\u0628\u0628\u064a\u0644\u0627", "latitude": "35.7011111111", "id": 353}, {"latlon": " 35\u00b011'19\"N   36\u00b041'47\"E", "name": "Balahsin", "region": "HAMA ", "longitude": "36.6963888889", "arabic_name": "\u0628\u0644\u062d\u0633\u064a\u0646", "latitude": "35.1886111111", "id": 354}, {"latlon": "35\u00b08'43\"N   36\u00b033'36\"E", "name": "Bayad ", "region": "HAMA ", "longitude": "36.56", "arabic_name": "\u0627\u0644\u0628\u064a\u0627\u0636", "latitude": "35.1452777778", "id": 355}, {"latlon": " 34\u00b058'50\"N   37\u00b012'18\"E", "name": "Berri al-Sharqi ", "region": "HAMA ", "longitude": "37.205", "arabic_name": "\u0628\u0631\u064a \u0634\u0631\u0642\u064a", "latitude": "34.9805555556", "id": 356}, {"latlon": "35\u00b012'9\"N   36\u00b026'50\"E", "name": "Deemu ", "region": "HAMA ", "longitude": "36.4472222222", "arabic_name": "\u062f\u064a\u0645\u0648", "latitude": "35.2025", "id": 357}, {"latlon": "35\u00b020'25\"N   37\u00b00'10\"E", "name": "Duma ", "region": "HAMA ", "longitude": "37.0027777778", "arabic_name": "\u0636\u064a\u0639\u0629 \u062f\u0648\u0645\u0627", "latitude": "35.3402777778", "id": 358}, {"latlon": "35\u00b018'34\"N   36\u00b055'1\"E", "name": "Fan Shamali ", "region": "HAMA ", "longitude": "36.9169444444", "arabic_name": "\u0641\u0627\u0646 \u0634\u0645\u0627\u0644\u064a", "latitude": "35.3094444444", "id": 359}, {"latlon": " 34\u00b051'11\"N   36\u00b030'18\"E ", "name": "Fellah", "region": "HAMA ", "longitude": "36.505", "arabic_name": "\u0641\u064a\u0644\u0627\u062d", "latitude": "34.8530555556", "id": 360}, {"latlon": "35.261419, 36.604177", "name": "Halfaya", "region": "HAMA ", "longitude": "36.604177", "arabic_name": "\u062d\u0644\u0641\u0627\u064a\u0627", "latitude": "35.261419", "id": 361}, {"latlon": "35\u00b039'24\"N   36\u00b023'16\"E", "name": "Hamidiyah ", "region": "HAMA ", "longitude": "36.3877777778", "arabic_name": "\u0627\u0644\u062d\u0645\u064a\u062f\u064a\u0629", "latitude": "35.6566666667", "id": 362}, {"latlon": "35\u00b01'31\"N   37\u00b025'24\"E", "name": "Hammadi al-Omar ", "region": "HAMA ", "longitude": "37.4233333333", "arabic_name": "\u062d\u0645\u0627\u062f\u064a \u0627\u0644\u0639\u0645\u0631", "latitude": "35.0252777778", "id": 363}, {"latlon": "35\u00b011'0\"N   36\u00b028'15\"E", "name": "Hanjour", "region": "HAMA ", "longitude": "36.4708333333", "arabic_name": "\u062d\u0646\u062c\u0648\u0631", "latitude": "35.1833333333", "id": 364}, {"latlon": "35\u00b032'58\"N 36\u00b022'44\"E ", "name": "Hawash", "region": "HAMA ", "longitude": "36.3788888889", "arabic_name": "\u062a\u0644 \u0647\u0648\u0627\u0634", "latitude": "35.5494444444", "id": 365}, {"latlon": "35\u00b031'23\"N   36\u00b022'23\"E", "name": "Hawijah ", "region": "HAMA ", "longitude": "36.3730555556", "arabic_name": "\u0627\u0644\u062d\u0648\u064a\u062c\u0629", "latitude": "35.5230555556", "id": 366}, {"latlon": " 35\u00b030'0\"N   36\u00b021'19\"E ", "name": "Hawiz", "region": "HAMA ", "longitude": "36.3552777778", "arabic_name": "\u0627\u0644\u062d\u0648\u064a\u0632", "latitude": "35.5", "id": 367}, {"latlon": "35\u00b020'54\"N   36\u00b026'18\"E", "name": "Hayalin", "region": "HAMA ", "longitude": "36.4383333333", "arabic_name": "\u062d\u064a\u0627\u0644\u064a\u0646 \u0627\u0644\u063a\u0627\u0628", "latitude": "35.3483333333", "id": 368}, {"latlon": "34\u00b058'40\"N   37\u00b025'28\"E", "name": "Jabriyah ", "region": "HAMA ", "longitude": "37.4244444444", "arabic_name": " \u0642\u0631\u064a\u0629 \u0627\u0644\u062c\u0627\u0628\u0631\u064a\u0629", "latitude": "34.9777777778", "id": 369}, {"latlon": "35\u00b016'52\"N   36\u00b032'7\"E", "name": "Jadideh", "region": "HAMA ", "longitude": "36.5352777778", "arabic_name": "\u0627\u0644\u062c\u062f\u064a\u062f\u0629", "latitude": "35.2811111111", "id": 370}, {"latlon": " 35\u00b019'32\"N   36\u00b029'8\"E ", "name": "Jalameh", "region": "HAMA ", "longitude": "36.4855555556", "arabic_name": "\u0627\u0644\u062c\u0644\u0645\u0629", "latitude": "35.3255555556", "id": 371}, {"latlon": "35\u00b02'51\"N   36\u00b09'0\"E", "name": "Jammaseh ", "region": "HAMA ", "longitude": "36.15", "arabic_name": "\u062c\u0645\u0627\u0633\u0629", "latitude": "35.0475", "id": 372}, {"latlon": "35\u00b08'21\"N   36\u00b033'55\"E", "name": "Jarjarah", "region": "HAMA ", "longitude": "36.5652777778", "arabic_name": "\u062c\u0631\u062c\u0631\u0629", "latitude": "35.1391666667", "id": 373}, {"latlon": "34\u00b056'37\"N   36\u00b041'36\"E ", "name": "Jarjiseh ", "region": "HAMA ", "longitude": "36.6933333333", "arabic_name": "\u062c\u0631\u062c\u064a\u0633\u0629", "latitude": "34.9436111111", "id": 374}, {"latlon": "35\u00b033'6\"N 36\u00b018'41\"E", "name": "Jayed ", "region": "HAMA ", "longitude": "36.3113888889", "arabic_name": "\u0627\u0644\u062c\u0627\u064a\u062f", "latitude": "35.5516666667", "id": 375}, {"latlon": " 35\u00b05'5\"N   36\u00b050'42\"E ", "name": "Jennan ", "region": "HAMA ", "longitude": "36.845", "arabic_name": "\u0627\u0644\u062c\u0646\u0627\u0646", "latitude": "35.0847222222", "id": 376}, {"latlon": "35\u00b020'16\"N   36\u00b030'49\"E ", "name": "Jibeen", "region": "HAMA ", "longitude": "36.5136111111", "arabic_name": "\u062c\u0628\u064a\u0646", "latitude": "35.3377777778", "id": 377}, {"latlon": "35\u00b011'39\"N   36\u00b030'9\"E", "name": "Jreijas ", "region": "HAMA ", "longitude": "36.5025", "arabic_name": "\u062c\u0631\u064a\u062c\u0633", "latitude": "35.1941666667", "id": 378}, {"latlon": "35\u00b017'12\"N   36\u00b030'39\"E", "name": "Kafar Houd  ", "region": "HAMA ", "longitude": "36.5108333333", "arabic_name": "\u0645\u0633\u062c\u062f \u0643\u0641\u0631 \u0647\u0648\u062f", "latitude": "35.2866666667", "id": 379}, {"latlon": "35\u00b09'32\"N   36\u00b037'53\"E", "name": "Kafar al-Toun ", "region": "HAMA ", "longitude": "36.6313888889", "arabic_name": "\u0643\u0641\u0631 \u0627\u0644\u0637\u0648\u0646", "latitude": "35.1588888889", "id": 380}, {"latlon": "35.373216, 36.601982", "name": "Kafar Zita", "region": "HAMA ", "longitude": "36.601982", "arabic_name": "\u0643\u0641\u0631 \u0632\u064a\u062a\u0627", "latitude": "35.373216", "id": 381}, {"latlon": "35.217446, 36.805884", "name": "Kafraa ", "region": "HAMA ", "longitude": "36.805884", "arabic_name": "\u0643\u0641\u0631\u0627\u0639", "latitude": "35.217446", "id": 382}, {"latlon": "35.139550, 36.729714", "name": "Karameh", "region": "HAMA ", "longitude": "36.729714", "arabic_name": "\u0627\u0644\u0643\u0631\u0627\u0645\u0629", "latitude": "35.139550", "id": 383}, {"latlon": "35\u00b026'22\"N   36\u00b019'45\"E", "name": "Karayam", "region": "HAMA ", "longitude": "36.3291666667", "arabic_name": "\u0627\u0644\u0643\u0631\u064a\u0645", "latitude": "35.4394444444", "id": 384}, {"latlon": " 35\u00b020'49\"N   36\u00b051'21\"E", "name": "Khafsin ", "region": "HAMA ", "longitude": "36.8558333333", "arabic_name": "\u062e\u0641\u0633\u064a\u0646", "latitude": "35.3469444444", "id": 385}, {"latlon": "35\u00b014'54\"N   36\u00b031'45\"E ", "name": "Khnayzir ", "region": "HAMA ", "longitude": "36.5291666667", "arabic_name": "\u062e\u0646\u064a\u0632\u064a\u0631", "latitude": "35.2483333333", "id": 386}, {"latlon": "35\u00b020'19\"N   36\u00b049'53\"E", "name": "Krah ", "region": "HAMA ", "longitude": "36.8313888889", "arabic_name": "\u0643\u0631\u0627\u062d", "latitude": "35.3386111111", "id": 387}, {"latlon": "35\u00b021'30\"N   36\u00b039'8\"E ", "name": "Latammin ", "region": "HAMA ", "longitude": "36.6522222222", "arabic_name": "\u0644\u0637\u0645\u064a\u0646", "latitude": "35.3583333333", "id": 388}, {"latlon": "35.326749, 36.621766", "name": "latameh", "region": "HAMA ", "longitude": "36.621766", "arabic_name": "\u0627\u0644\u0644\u0637\u0627\u0645\u0646\u0629", "latitude": "35.326749", "id": 389}, {"latlon": "35\u00b012'14\"N   36\u00b033'22\"E", "name": "Ma'arzaf ", "region": "HAMA ", "longitude": "36.5561111111", "arabic_name": "\u0645\u0639\u0631\u0632\u0627\u0641", "latitude": "35.2038888889", "id": 390}, {"latlon": "35\u00b03'31\"N 37\u00b030'33\"E", "name": "Jubb Al-Aswad", "region": "HAMA ", "longitude": "37.5091666667", "arabic_name": "\u062c\u0628 \u0627\u0644\u0623\u0633\u0648\u062f", "latitude": "35.0586111111", "id": 391}, {"latlon": "34\u00b030'35\"N   40\u00b055'51\"E", "name": "Marrashidah ", "region": "HAMA ", "longitude": "40.9308333333", "arabic_name": "\u0645\u0631\u0634\u062f\u064a\u0629", "latitude": "34.5097222222", "id": 392}, {"latlon": "35\u00b05'25\"N   37\u00b021'59\"E  ", "name": "Massoud ", "region": "HAMA ", "longitude": "37.3663888889", "arabic_name": "\u0645\u0633\u0639\u0648\u062f", "latitude": "35.0902777778", "id": 393}, {"latlon": "35.064982, 36.341866", "name": "Misyaf", "region": "HAMA ", "longitude": "36.341866", "arabic_name": "\u0645\u0635\u064a\u0627\u0641", "latitude": "35.064982", "id": 394}, {"latlon": "35.375176, 36.687255", "name": "Morek ", "region": "HAMA ", "longitude": "36.687255", "arabic_name": "\u0645\u0648\u0631\u0643", "latitude": "35.375176", "id": 395}, {"latlon": "35.249636, 36.583017", "name": "Muhradah", "region": "HAMA ", "longitude": "36.583017", "arabic_name": "\u0645\u062d\u0631\u062f\u0629", "latitude": "35.249636", "id": 396}, {"latlon": " 35.139N 37.652E", "name": "Mustarihah ", "region": "HAMA ", "longitude": "37.652", "arabic_name": "\u0642\u0631\u064a\u0629 \u0627\u0644\u0645\u0633\u062a\u0631\u064a\u062d\u0629", "latitude": "35.139", "id": 397}, {"latlon": "35\u00b028'23\"N   36\u00b019'6\"E ", "name": "Qaber Fidah ", "region": "HAMA ", "longitude": "36.3183333333", "arabic_name": "\u0642\u0628\u0631 \u0641\u0636\u0629", "latitude": "35.4730555556", "id": 398}, {"latlon": "34\u00b050'41\"N   36\u00b027'16\"E", "name": "Qabu", "region": "HAMA ", "longitude": "36.4544444444", "arabic_name": "\u0627\u0644\u0642\u0628\u0629", "latitude": "34.8447222222", "id": 399}, {"latlon": " 35\u00b04'20\"N   37\u00b027'13\"E", "name": "Qanbar ", "region": "HAMA ", "longitude": "37.4536111111", "arabic_name": " \u0642\u0631\u064a\u0629 \u0642\u0646\u0628\u0631", "latitude": "35.0722222222", "id": 400}, {"latlon": "35\u00b021'16\"N   36\u00b058'19\"E ", "name": "Qasr Abu Samrah ", "region": "HAMA ", "longitude": "36.9719444444", "arabic_name": "\u0642\u0635\u0631 \u0627\u0628\u0648 \u0633\u0645\u0631\u0629", "latitude": "35.3544444444", "id": 401}, {"latlon": "35\u00b027'58\"N   36\u00b029'46\"E", "name": "Qassabiyah ", "region": "HAMA ", "longitude": "36.4961111111", "arabic_name": "\u0627\u0644\u0642\u0635\u0627\u0628\u064a\u0629", "latitude": "35.4661111111", "id": 402}, {"latlon": "35\u00b010'39\"N   36\u00b030'53\"E ", "name": "Qubeir ", "region": "HAMA ", "longitude": "36.5147222222", "arabic_name": "\u0627\u0644\u0642\u0628\u064a\u0631", "latitude": "35.1775", "id": 403}, {"latlon": "35.204129, 37.159844", "name": "Qubaybat ", "region": "HAMA ", "longitude": "37.159844", "arabic_name": "\u0642\u0628\u064a\u0628\u0627\u062a", "latitude": "35.204129", "id": 404}, {"latlon": "35.611194, 36.384766", "name": "Qulaydin ", "region": "HAMA ", "longitude": "36.384766", "arabic_name": "\u0642\u0644\u064a\u062f\u064a\u0646", "latitude": "35.611194", "id": 405}, {"latlon": "35\u00b023'39\"N   37\u00b024'1\"E", "name": "Rihajan ", "region": "HAMA ", "longitude": "37.4002777778", "arabic_name": "\u0627\u0644\u0631\u0647\u062c\u0627\u0646", "latitude": "35.3941666667", "id": 406}, {"latlon": "35\u00b09'28\"N   37\u00b012'44\"E ", "name": "Sabburah ", "region": "HAMA ", "longitude": "37.2122222222", "arabic_name": "\u0635\u0628\u0648\u0631\u0629", "latitude": "35.1577777778", "id": 407}, {"latlon": "35\u00b015'47\"N   36\u00b028'37\"E", "name": "Safsafeh", "region": "HAMA ", "longitude": "36.4769444444", "arabic_name": "\u062c\u0627\u0645\u0639 \u0627\u0644\u0635\u0641\u0635\u0627\u0641\u064a\u0629", "latitude": "35.2630555556", "id": 408}, {"latlon": "35\u00b028'59\"N   36\u00b025'41\"E ", "name": "Sahariyah ", "region": "HAMA ", "longitude": "36.4280555556", "arabic_name": "\u0627\u0644\u0635\u0647\u0631\u064a\u0629", "latitude": "35.4830555556", "id": 409}, {"latlon": "35.013336, 37.056627", "name": "Salamiyah", "region": "HAMA ", "longitude": "37.056627", "arabic_name": "\u0633\u0644\u0645\u064a\u0629", "latitude": "35.013336", "id": 410}, {"latlon": "34\u00b050'18\"N   36\u00b034'21\"E", "name": "Samalil ", "region": "HAMA ", "longitude": "36.5725", "arabic_name": "\u062c\u0627\u0645\u0639 \u0627\u0644\u0633\u0645\u064a\u0639\u0644 \u0627\u0644\u0643\u0628\u064a\u0631", "latitude": "34.8383333333", "id": 411}, {"latlon": "35\u00b015'50\"N   37\u00b022'17\"E ", "name": "Sa'an ", "region": "HAMA ", "longitude": "37.3713888889", "arabic_name": "\u0627\u0644\u0633\u0639\u0646", "latitude": "35.2638888889", "id": 412}, {"latlon": "35\u00b031'2\"N   36\u00b024'10\"E", "name": "Shaharnaz ", "region": "HAMA ", "longitude": "36.4027777778", "arabic_name": "\u0634\u0647\u0631\u0646\u0627\u0632", "latitude": "35.5172222222", "id": 413}, {"latlon": "35\u00b026'41\"N   36\u00b021'11\"E", "name": "Shari'ah ", "region": "HAMA ", "longitude": "36.3530555556", "arabic_name": "\u0627\u0644\u0634\u0631\u064a\u0639\u0629", "latitude": "35.4447222222", "id": 414}, {"latlon": "35\u00b011'35\"N   36\u00b037'14\"E", "name": "Shayr ", "region": "HAMA ", "longitude": "36.6205555556", "arabic_name": "\u0627\u0644\u0634\u064a\u0631", "latitude": "35.1930555556", "id": 415}, {"latlon": "35\u00b015'48\"N   36\u00b033'36\"E", "name": "Shayzer", "region": "HAMA ", "longitude": "36.56", "arabic_name": "\u0634\u064a\u0632\u0631", "latitude": "35.2633333333", "id": 416}, {"latlon": "35\u00b021'10\"N   36\u00b028'59\"E", "name": "Sheikh Hadid", "region": "HAMA ", "longitude": "36.4830555556", "arabic_name": "\u0634\u064a\u062e \u062d\u062f\u064a\u062f", "latitude": "35.3527777778", "id": 417}, {"latlon": "35\u00b09'10\"N   36\u00b041'8\"E ", "name": "Sheyha ", "region": "HAMA ", "longitude": "36.6855555556", "arabic_name": "\u0627\u0644\u0634\u064a\u062d\u0629", "latitude": "35.1527777778", "id": 418}, {"latlon": " 35\u00b028'59\"N   36\u00b025'41\"E", "name": "Sihriyah ", "region": "HAMA ", "longitude": "36.4280555556", "arabic_name": "\u0633\u062d\u0631\u064a\u0629 ", "latitude": "35.4830555556", "id": 419}, {"latlon": "35\u00b042'51\"N   36\u00b017'3\"E", "name": "Sormaniyah ", "region": "HAMA ", "longitude": "36.2841666667", "arabic_name": "\u0627\u0644\u0633\u0631\u0645\u0627\u0646\u064a\u0629", "latitude": "35.7141666667", "id": 420}, {"latlon": " 35\u00b00'2\"N   37\u00b024'8\"E ", "name": "Souha", "region": "HAMA ", "longitude": "37.4022222222", "arabic_name": "\u0633\u0648\u062d\u0627", "latitude": "35.0005555556", "id": 421}, {"latlon": "35\u00b025'39\"N   36\u00b046'12\"E", "name": "Sukayk  ", "region": "HAMA ", "longitude": "36.77", "arabic_name": "\u0637\u0631\u064a\u0642 \u0633\u0643\u064a\u0643", "latitude": "35.4275", "id": 422}, {"latlon": "35.369472, 36.379788", "name": "Suqaylabiyah", "region": "HAMA ", "longitude": "36.379788", "arabic_name": "\u0627\u0644\u0633\u0642\u064a\u0644\u0628\u064a\u0629", "latitude": "35.369472", "id": 423}, {"latlon": "35.292326, 36.746128", "name": "Suran", "region": "HAMA ", "longitude": "36.746128", "arabic_name": "\u0635\u0648\u0631\u0627\u0646", "latitude": "35.292326", "id": 424}, {"latlon": " 35\u00b026'41\"N   36\u00b027'26\"E", "name": "Tal Hawash", "region": "HAMA ", "longitude": "36.4572222222", "arabic_name": "\u062a\u0644 \u0647\u0648\u0627\u0634", "latitude": "35.4447222222", "id": 425}, {"latlon": "35\u00b025'59\"N   36\u00b058'54\"E", "name": "Tal Khanzir ", "region": "HAMA ", "longitude": "36.9816666667", "arabic_name": "\u062a\u0644 \u062e\u0646\u0632\u064a\u0631 ", "latitude": "35.4330555556", "id": 426}, {"latlon": "35\u00b018'21\"N   36\u00b031'12\"E", "name": "Tal Malah", "region": "HAMA ", "longitude": "36.52", "arabic_name": "\u062a\u0644 \u0645\u0644\u0627\u062d", "latitude": "35.3058333333", "id": 427}, {"latlon": "35\u00b09'17\"N   36\u00b034'56\"E", "name": "Tal Sakkin", "region": "HAMA ", "longitude": "36.5822222222", "arabic_name": "\u062a\u0644 \u0633\u0643\u064a\u0646", "latitude": "35.1547222222", "id": 428}, {"latlon": "33.5587724, 36.3615918", "name": "Tal Sukayk", "region": "HAMA ", "longitude": "36.3615918", "arabic_name": "\u062a\u0644 \u0633\u0643\u0633\u0643", "latitude": "33.5587724", "id": 429}, {"latlon": "34\u00b054'42\"N   36\u00b033'39\"E", "name": "Talaf ", "region": "HAMA ", "longitude": "36.5608333333", "arabic_name": "\u0637\u0644\u0641", "latitude": "34.9116666667", "id": 430}, {"latlon": " 35\u00b022'1\"N   36\u00b054'52\"E", "name": "Talisiyah", "region": "HAMA ", "longitude": "36.9144444444", "arabic_name": "\u0642\u0631\u064a\u0629 \u0627\u0644\u0637\u0644\u0633\u064a\u0629", "latitude": "35.3669444444", "id": 431}, {"latlon": "35\u00b032'20\"N   36\u00b018'57\"E", "name": "Tamana'at al-Ghab  ", "region": "HAMA ", "longitude": "36.3158333333", "arabic_name": "\u062a\u0645\u0627\u0646\u0639\u0629 \u0627\u0644\u063a\u0627\u0628", "latitude": "35.5388888889", "id": 432}, {"latlon": "35\u00b031'29\"N 36\u00b028'56\"E", "name": "Tarmala", "region": "HAMA ", "longitude": "36.4822222222", "arabic_name": " \u0628\u0644\u062f\u0629 \u062a\u0631\u0645\u0644\u0627", "latitude": "35.5247222222", "id": 433}, {"latlon": "35.265002, 36.711112", "name": "Tayyibat al-Imam", "region": "HAMA ", "longitude": "36.711112", "arabic_name": "\u0637\u064a\u0628\u0629 \u0627\u0644\u0627\u0645\u0627\u0645", "latitude": "35.265002", "id": 434}, {"latlon": "35\u00b014'25\"N   36\u00b056'9\"E", "name": "Tayyibat al-Turki ", "region": "HAMA ", "longitude": "36.9358333333", "arabic_name": "\u0637\u064a\u0628\u0629 \u0627\u0644\u062a\u0631\u0643\u064a", "latitude": "35.2402777778", "id": 435}, {"latlon": "35\u00b026'27\"N   36\u00b026'14\"E ", "name": "Toubah ", "region": "HAMA ", "longitude": "36.4372222222", "arabic_name": "\u0637\u0648\u0628\u0629", "latitude": "35.4408333333", "id": 436}, {"latlon": "35\u00b016'23\"N   36\u00b030'17\"E", "name": "Traymseh", "region": "HAMA ", "longitude": "36.5047222222", "arabic_name": "\u0627\u0644\u062a\u0631\u064a\u0645\u0633\u0629", "latitude": "35.2730555556", "id": 437}, {"latlon": "35.4081469,   36.8234988", "name": "Utshan ", "region": "HAMA ", "longitude": "36.8234988", "arabic_name": "\u0639\u0637\u0634\u0627\u0646", "latitude": "35.4081469", "id": 438}, {"latlon": "35\u00b020'24\"N   36\u00b034'38\"E ", "name": "Zakah ", "region": "HAMA ", "longitude": "36.5772222222", "arabic_name": "\u0627\u0644\u0632\u0643\u0627\u0647", "latitude": "35.34", "id": 439}, {"latlon": "35\u00b043'37\"N   36\u00b021'25\"E", "name": "Zeizoun ", "region": "HAMA ", "longitude": "36.3569444444", "arabic_name": "\u0632\u064a\u0632\u0648\u0646", "latitude": "35.7269444444", "id": 440}, {"latlon": "35.2675562,    36.6005184", "name": "Zillakiat", "region": "HAMA ", "longitude": "36.6005184", "arabic_name": "\u0627\u0644\u0632\u0644\u0627\u0642\u064a\u0627\u062a", "latitude": "35.2675562", "id": 441}, {"latlon": "34.9665N   37.50E", "name": "Khatamlu ", "region": "HAMA ", "longitude": "37.50", "arabic_name": "\u062e\u0637\u0645\u0644\u0648", "latitude": "34.9665", "id": 442}, {"latlon": "35.373461, 36.601458", "name": "Kafr Zita", "region": "HAMA ", "longitude": "36.601458", "arabic_name": "\u0643\u0641\u0631\u0632\u064a\u062a\u0627", "latitude": "35.373461", "id": 443}, {"latlon": "35.315751, 36.695237", "name": "Al-Boida", "region": "HAMA ", "longitude": "36.695237", "arabic_name": "\u0627\u0644\u0628\u0648\u064a\u0636\u0629", "latitude": "35.315751", "id": 444}, {"latlon": "35.688947, 36.338737", "name": "Ziyarah", "region": "HAMA ", "longitude": "36.338737", "arabic_name": "\u0627\u0644\u0632\u064a\u0627\u0631\u0629", "latitude": "35.688947", "id": 445}, {"latlon": "36.5013738,   40.7469948", "name": "HASAKAH", "region": "HASAKAH", "longitude": "40.7469948", "arabic_name": "\u0627\u0644\u062d\u0633\u0643\u0629", "latitude": "36.5013738", "id": 446}, {"latlon": "36.925  41.4377778", "name": "Tall Bulayj", "region": "HASAKAH", "longitude": "41.4377778", "arabic_name": "\u062a\u0644 \u0628\u0644\u064a\u062c", "latitude": "36.925", "id": 447}, {"latlon": "36.8427778, 41.28", "name": "Salihiyat Harb", "region": "HASAKAH", "longitude": "41.28", "arabic_name": "\u0635\u0627\u0644\u062d\u064a\u0627\u062a \u062d\u0631\u0628", "latitude": "36.8427778", "id": 448}, {"latlon": "36.8466667  41.3016667", "name": "Haddadiyah", "region": "HASAKAH", "longitude": "41.3016667", "arabic_name": "\u062d\u062f\u0627\u062f\u064a\u0629", "latitude": "36.8466667", "id": 449}, {"latlon": "36.243754, 40.7561874", "name": "al-Arisheh nahiyah ", "region": "HASAKAH", "longitude": "40.7561874", "arabic_name": "\u0627\u0644\u0639\u0631\u064a\u0634\u0629", "latitude": "36.243754", "id": 450}, {"latlon": "36.513172, 40.749727", "name": "Bir al-Helou nahiyah ", "region": "HASAKAH", "longitude": "40.749727", "arabic_name": "\u0628\u064a\u0631 \u0627\u0644\u062d\u0644\u0648", "latitude": "36.513172", "id": 451}, {"latlon": "36.513172, 40.749727", "name": "al-Hasakah nahiyah ", "region": "HASAKAH", "longitude": "40.749727", "arabic_name": "\u0646\u0627\u062d\u064a\u0629 \u0627\u0644\u062d\u0633\u0643\u0629", "latitude": "36.513172", "id": 452}, {"latlon": "36.243754, 40.7561874", "name": "al-Houl nahiyah ", "region": "HASAKAH", "longitude": "40.7561874", "arabic_name": "\u0646\u0627\u062d\u064a\u0629 \u0627\u0644\u062d\u0648\u0644", "latitude": "36.243754", "id": 453}, {"latlon": " 35\u00b045'2\"N   40\u00b047'32\"E", "name": "Markadeh nahiyah ", "region": "HASAKAH", "longitude": "40.7922222222", "arabic_name": "\u0645\u0631\u0643\u062f\u0629", "latitude": "35.7505555556", "id": 454}, {"latlon": "36.055241, 40.730953", "name": "Shaddadeh nahiyah ", "region": "HASAKAH", "longitude": "40.730953", "arabic_name": "\u0627\u0644\u0634\u062f\u0627\u062f\u064a", "latitude": "36.055241", "id": 455}, {"latlon": "36.656359, 40.367753", "name": "Tal Tamer nahiyah ", "region": "HASAKAH", "longitude": "40.367753", "arabic_name": "\u062a\u0644 \u062a\u0645\u0631", "latitude": "36.656359", "id": 456}, {"latlon": "37.168112, 42.133770", "name": "al-Malikiyah mantiqah ", "region": "HASAKAH", "longitude": "42.133770", "arabic_name": "\u0627\u0644\u0645\u0627\u0644\u0643\u064a\u0629", "latitude": "37.168112", "id": 457}, {"latlon": "36\u00b057'41\"N 41\u00b053'5\"E", "name": "Jawadiyah nahiyah ", "region": "HASAKAH", "longitude": "41.8847222222", "arabic_name": "\u0627\u0644\u062c\u0648\u0627\u062f\u064a\u0629", "latitude": "36.9613888889", "id": 458}, {"latlon": "37\u00b010'21\"N 42\u00b08'24\"E", "name": "al-Malikiyah nahiyah ", "region": "HASAKAH", "longitude": "42.14", "arabic_name": "\u0646\u0627\u062d\u064a\u0629 \u0627\u0644\u0645\u0627\u0644\u0643\u064a\u0629", "latitude": "37.1725", "id": 459}, {"latlon": "36.8072489N 42.0747614E", "name": "Yarubiyeh nahiyah ", "region": "HASAKAH", "longitude": "42.0747614", "arabic_name": " \u064a\u0639\u0631\u0628\u064a\u0629", "latitude": "36.8072489", "id": 460}, {"latlon": "37.049653, 41.217567", "name": "Qamishli mantiqah ", "region": "HASAKAH", "longitude": "41.217567", "arabic_name": "\u0642\u0627\u0645\u0634\u0644\u064a", "latitude": "37.049653", "id": 461}, {"latlon": "37.104466, 40.929955", "name": "Amouda nahiyah ", "region": "HASAKAH", "longitude": "40.929955", "arabic_name": "\u0639\u0627\u0645\u0648\u062f\u0627", "latitude": "37.104466", "id": 462}, {"latlon": "36.513172, 40.749727", "name": "Qamishli nahiyah ", "region": "HASAKAH", "longitude": "40.749727", "arabic_name": "\u0646\u0627\u062d\u064a\u0629 \u0627\u0644\u0642\u0627\u0645\u0634\u0644\u064a", "latitude": "36.513172", "id": 463}, {"latlon": "36.755841, 41.398557", "name": "Tal Hamis nahiyah ", "region": "HASAKAH", "longitude": "41.398557", "arabic_name": "\u062a\u0644 \u062d\u0645\u064a\u0633", "latitude": "36.755841", "id": 464}, {"latlon": "37.028612, 41.548254", "name": "al-Qahtaniyeh nahiyah ", "region": "HASAKAH", "longitude": "41.548254", "arabic_name": "\u0627\u0644\u0642\u062d\u0637\u0627\u0646\u064a\u0629", "latitude": "37.028612", "id": 465}, {"latlon": "36.849405, 40.064735", "name": "Ras al-Ayn mantiqah ", "region": "HASAKAH", "longitude": "40.064735", "arabic_name": "\u0631\u0627\u0633 \u0627\u0644\u0639\u064a\u0646", "latitude": "36.849405", "id": 466}, {"latlon": "37.072695, 40.651410", "name": "Darbasiyah nahiyah ", "region": "HASAKAH", "longitude": "40.651410", "arabic_name": "\u0627\u0644\u062f\u0631\u0628\u0627\u0633\u064a\u0629", "latitude": "37.072695", "id": 467}, {"latlon": "36\u00b037'31\"N 40\u00b013'21\"E", "name": "Ras al-Ayn nahiyah ", "region": "HASAKAH", "longitude": "40.2225", "arabic_name": "\u0646\u0627\u062d\u064a\u0629 \u0631\u0627\u0633 \u0627\u0644\u0639\u064a\u0646", "latitude": "36.6252777778", "id": 468}, {"latlon": " 36.950N 41.816E", "name": "Khirbet Bajar ", "region": "HASAKAH", "longitude": "41.816", "arabic_name": "\u062e\u0631\u0628\u0629 ", "latitude": "36.950", "id": 469}, {"latlon": "36.082N 40.656E", "name": "Saba Arba'een ", "region": "HASAKAH", "longitude": "40.656", "arabic_name": "\u0642\u0631\u064a\u0629 \u0633\u0628\u0639\u0629", "latitude": "36.082", "id": 470}, {"latlon": "36\u00b051'39\"N   41\u00b018'6\"E", "name": "Tawarikh   ", "region": "HASAKAH", "longitude": "41.3016666667", "arabic_name": "\u0623\u0645 \u062a\u0648\u0627\u0631\u064a\u062e", "latitude": "36.8608333333", "id": 471}, {"latlon": "34.7333334   36.7166667", "name": "HOMS", "region": "HOMS", "longitude": "36.7166667", "arabic_name": "\u062d\u0645\u0635", "latitude": "34.7333334", "id": 472}, {"latlon": "34.727628, 36.717086", "name": "Old Homs ", "region": "HOMS", "longitude": "36.717086", "arabic_name": "\u062d\u0645\u0635 \u0627\u0644\u0642\u062f\u064a\u0645\u0629", "latitude": "34.727628", "id": 473}, {"latlon": "34\u00b043'6\"N   36\u00b043'18\"E", "name": "Adawiyah ", "region": "HOMS", "longitude": "36.7216666667", "arabic_name": "\u0627\u0644\u0639\u062f\u0648\u064a\u0629", "latitude": "34.7183333333", "id": 474}, {"latlon": "34\u00b042'26\"N   36\u00b042'25\"E", "name": "A'iddine Camp ", "region": "HOMS", "longitude": "36.7069444444", "arabic_name": "\u0645\u062e\u064a\u0645 \u0627\u0644\u0639\u0627\u0626\u062f\u064a\u0646", "latitude": "34.7072222222", "id": 475}, {"latlon": "34\u00b043'2\"N   36\u00b044'48\"E", "name": "Asheerah ", "region": "HOMS", "longitude": "36.7466666667", "arabic_name": " \u062d\u064a \u0639\u0634\u064a\u0631\u0629", "latitude": "34.7172222222", "id": 476}, {"latlon": "34\u00b043'30\"N   36\u00b042'45\"E ", "name": "Bab Turkman ", "region": "HOMS", "longitude": "36.7125", "arabic_name": "\u0628\u0627\u0628 \u062a\u0631\u0643\u0645\u0627\u0646", "latitude": "34.725", "id": 477}, {"latlon": "34\u00b043'36\"N   36\u00b043'2\"E ", "name": "Bani Sibai ", "region": "HOMS", "longitude": "36.7172222222", "arabic_name": "\u0628\u0627\u0628 \u0633\u0628\u0627\u0639", "latitude": "34.7266666667", "id": 478}, {"latlon": "34\u00b045'18\"N   36\u00b043'25\"E ", "name": "Central Prison ", "region": "HOMS", "longitude": "36.7236111111", "arabic_name": "\u0627\u0644\u0633\u062c\u0646 \u0627\u0644\u0645\u0631\u0643\u0632\u064a", "latitude": "34.755", "id": 479}, {"latlon": "34\u00b043'56\"N   36\u00b042'52\"E", "name": "Dalati mosque ", "region": "HOMS", "longitude": "36.7144444444", "arabic_name": "\u062c\u0627\u0645\u0639 \u0627\u0644\u062f\u0627\u0644\u0627\u062a\u064a", "latitude": "34.7322222222", "id": 480}, {"latlon": " 34\u00b043'12\"N   36\u00b043'35\"E", "name": "Fakhoura", "region": "HOMS", "longitude": "36.7263888889", "arabic_name": "\u0627\u0644\u0641\u0627\u062e\u0648\u0631\u0629", "latitude": "34.72", "id": 481}, {"latlon": "34\u00b045'5\"N   36\u00b042'56\"E", "name": "Hama Street ", "region": "HOMS", "longitude": "36.7155555556", "arabic_name": "\u0634\u0627\u0631\u0639 \u062d\u0645\u0627", "latitude": "34.7513888889", "id": 482}, {"latlon": "34\u00b043'36\"N   36\u00b043'52\"E ", "name": "Jab al-Jandali ", "region": "HOMS", "longitude": "36.7311111111", "arabic_name": "\u062c\u0628 \u0627\u0644\u062c\u0646\u062f\u0644\u064a", "latitude": "34.7266666667", "id": 483}, {"latlon": "34\u00b041'35\"N   36\u00b040'28\"E", "name": "Jobar ", "region": "HOMS", "longitude": "36.6744444444", "arabic_name": "\u062c\u0648\u0628\u0631", "latitude": "34.6930555556", "id": 484}, {"latlon": "34\u00b044'10\"N   36\u00b043'20\"E", "name": "Karam Shamsham ", "region": "HOMS", "longitude": "36.7222222222", "arabic_name": "\u0643\u0631\u0645 \u0634\u0645\u0634\u0645 ", "latitude": "34.7361111111", "id": 485}, {"latlon": "34\u00b043'16\"N   36\u00b043'25\"E ", "name": "Marija ", "region": "HOMS", "longitude": "36.7236111111", "arabic_name": "\u0645\u0631\u064a\u062c\u0629", "latitude": "34.7211111111", "id": 486}, {"latlon": " 34\u00b044'10\"N   36\u00b043'20\"E", "name": "Rabia al-Arabi ", "region": "HOMS", "longitude": "36.7222222222", "arabic_name": "\u0631\u0628\u064a\u0639 \u0627\u0644\u0639\u0631\u0628\u064a", "latitude": "34.7361111111", "id": 487}, {"latlon": " 34\u00b041'48\"N   36\u00b043'45\"E", "name": "Rifai", "region": "HOMS", "longitude": "36.7291666667", "arabic_name": "\u062d\u064a \u0631\u0641\u0627\u0639\u064a", "latitude": "34.6966666667", "id": 488}, {"latlon": " 34\u00b044'34\"N   36\u00b043'30\"E", "name": "Sharakes", "region": "HOMS", "longitude": "36.725", "arabic_name": "\u062d\u0627\u062c\u0632 \u0634\u0631\u0643\u0633", "latitude": "34.7427777778", "id": 489}, {"latlon": "34\u00b042'1\"N   36\u00b040'47\"E", "name": "Sultaniyah ", "region": "HOMS", "longitude": "36.6797222222", "arabic_name": "\u0633\u0644\u0637\u0627\u0646\u064a\u0629", "latitude": "34.7002777778", "id": 490}, {"latlon": "34\u00b044'29\"N   36\u00b043'48\"E", "name": "Wadi Arab ", "region": "HOMS", "longitude": "36.73", "arabic_name": "\u0648\u0627\u062f\u064a \u0627\u0644\u0639\u0631\u0628", "latitude": "34.7413888889", "id": 491}, {"latlon": "34\u00b038'13\"N   36\u00b040'35\"E", "name": "Abel ", "region": "HOMS", "longitude": "36.6763888889", "arabic_name": "\u0627\u0628\u0644", "latitude": "34.6369444444", "id": 492}, {"latlon": "34\u00b033'2\"N   36\u00b036'48\"E", "name": "Al-Burayj ", "region": "HOMS", "longitude": "36.6133333333", "arabic_name": "\u0627\u0644\u0628\u0631\u064a\u062c", "latitude": "34.5505555556", "id": 493}, {"latlon": "34\u00b036'8\"N   36\u00b035'36\"E ", "name": "Dhaba'ah ", "region": "HOMS", "longitude": "36.5933333333", "arabic_name": "\u0627\u0644\u062f\u0645\u064a\u0646\u0629 \u0627\u0644\u063a\u0631\u0628\u064a\u0629", "latitude": "34.6022222222", "id": 494}, {"latlon": "34.882533, 36.574516", "name": "Dar-Assalamlam", "region": "HOMS", "longitude": "36.574516", "arabic_name": "\u062f\u0627\u0631 \u0627\u0644\u0633\u0644\u0645\u0644\u0645", "latitude": "34.882533", "id": 495}, {"latlon": "34\u00b053'41\"N   36\u00b040'44\"E ", "name": "Gharnatah ", "region": "HOMS", "longitude": "36.6788888889", "arabic_name": "\u063a\u0631\u0646\u0627\u0637\u0629", "latitude": "34.8947222222", "id": 496}, {"latlon": "34\u00b035'53\"N   36\u00b033'6\"E ", "name": "Ghasaniyah ", "region": "HOMS", "longitude": "36.5516666667", "arabic_name": "\u0627\u0644\u063a\u0633\u0627\u0646\u064a\u0629", "latitude": "34.5980555556", "id": 497}, {"latlon": "34\u00b038'33\"N   36\u00b013'22\"E", "name": "Hallat ", "region": "HOMS", "longitude": "36.2227777778", "arabic_name": "\u0647\u0644\u0627\u062a \u0627\u0644\u0628\u0634\u0627\u064a\u0631", "latitude": "34.6425", "id": 498}, {"latlon": "34.892865, 36.495252", "name": "Kafar Laha ", "region": "HOMS", "longitude": "36.495252", "arabic_name": "\u0643\u0641\u0631\u0644\u0627\u0647\u0627", "latitude": "34.892865", "id": 499}, {"latlon": " 34\u00b014'52\"N   37\u00b03'6\"E", "name": "Mahin ", "region": "HOMS", "longitude": "37.0516666667", "arabic_name": "\u0645\u0647\u064a\u0646", "latitude": "34.2477777778", "id": 500}, {"latlon": " 34\u00b046'52\"N   36\u00b015'35\"E", "name": "Marmarita ", "region": "HOMS", "longitude": "36.2597222222", "arabic_name": "\u0645\u0631\u0645\u0631\u064a\u062a\u0627", "latitude": "34.7811111111", "id": 501}, {"latlon": "34\u00b049'0\"N 37\u00b05'16\"E", "name": "Muharram ", "region": "HOMS", "longitude": "37.0877777778", "arabic_name": "\u0645\u062d\u0631\u0645", "latitude": "34.8166666667", "id": 502}, {"latlon": "34\u00b041'9\"N   36\u00b021'45\"E", "name": "Naoureh ", "region": "HOMS", "longitude": "36.3625", "arabic_name": "\u0646\u0627\u0639\u0648\u0631\u0629", "latitude": "34.6858333333", "id": 503}, {"latlon": "34\u00b039'52\"N   36\u00b040'2\"E", "name": "Naqirah ", "region": "HOMS", "longitude": "36.6672222222", "arabic_name": "\u0646\u0642\u064a\u0631\u0629", "latitude": "34.6644444444", "id": 504}, {"latlon": "34\u00b033'35\"N 38\u00b018'57\"E", "name": "Palmyra ", "region": "HOMS", "longitude": "38.3158333333", "arabic_name": "\u062a\u062f\u0645\u0631", "latitude": "34.5597222222", "id": 505}, {"latlon": "34\u00b045'22\"N   36\u00b017'48\"E", "name": "Qalaat al-Hosn ", "region": "HOMS", "longitude": "36.2966666667", "arabic_name": "\u0642\u0644\u0639\u0629 \u0627\u0644\u062d\u0635\u0646", "latitude": "34.7561111111", "id": 506}, {"latlon": "34.232595, 37.233245", "name": "Qaryatayn ", "region": "HOMS", "longitude": "37.233245", "arabic_name": "\u0627\u0644\u0642\u0631\u064a\u062a\u064a\u0646", "latitude": "34.232595", "id": 507}, {"latlon": "34.512090, 36.575777", "name": "Qusayr ", "region": "HOMS", "longitude": "36.575777", "arabic_name": "\u0627\u0644\u0642\u0635\u064a\u0631", "latitude": "34.512090", "id": 508}, {"latlon": "34.916390, 36.733818", "name": "Rastan ", "region": "HOMS", "longitude": "36.733818", "arabic_name": "\u0627\u0644\u0631\u0633\u062a\u0646", "latitude": "34.916390", "id": 509}, {"latlon": "34.605005, 36.721695", "name": "Shihshar ", "region": "HOMS", "longitude": "36.721695", "arabic_name": "\u0634\u0646\u0634\u0627\u0631", "latitude": "34.605005", "id": 510}, {"latlon": "34.886652, 38.871818", "name": "Sukhnah ", "region": "HOMS", "longitude": "38.871818", "arabic_name": "\u0627\u0644\u0633\u062e\u0646\u0629", "latitude": "34.886652", "id": 511}, {"latlon": "34.833601, 36.735749", "name": "Talbisah ", "region": "HOMS", "longitude": "36.735749", "arabic_name": "\u062a\u0644\u0628\u064a\u0633\u0629", "latitude": "34.833601", "id": 512}, {"latlon": "34.677140, 36.250098", "name": "Talkalakh ", "region": "HOMS", "longitude": "36.250098", "arabic_name": "\u062a\u0644\u0643\u0644\u062e", "latitude": "34.677140", "id": 513}, {"latlon": " 34\u00b053'33\"N   36\u00b046'45\"E", "name": "Zafaraneh ", "region": "HOMS", "longitude": "36.7791666667", "arabic_name": "\u0627\u0644\u0632\u0639\u0641\u0631\u0627\u0646\u064a\u0629 \u0627\u0644\u0634\u0631\u0642\u064a\u0629", "latitude": "34.8925", "id": 514}, {"latlon": "34\u00b042'25\"N   36\u00b015'20\"E", "name": "Zara ", "region": "HOMS", "longitude": "36.2555555556", "arabic_name": "\u0632\u0627\u0631\u0629", "latitude": "34.7069444444", "id": 515}, {"latlon": "34.759951, 36.747342", "name": "Dayr Baalbah", "region": "HOMS", "longitude": "36.747342", "arabic_name": "\u062f\u064a\u0631 \u0628\u0639\u0644\u0628\u0629", "latitude": "34.759951", "id": 516}, {"latlon": "34.745297, 36.710670", "name": "Al-Kussur", "region": "HOMS", "longitude": "36.710670", "arabic_name": "\u0627\u0644\u0642\u0635\u0648\u0631", "latitude": "34.745297", "id": 517}, {"latlon": "34.745732, 36.720042", "name": "Al-Khaldeeye", "region": "HOMS", "longitude": "36.720042", "arabic_name": "\u0627\u0644\u062e\u0627\u0644\u062f\u064a\u0629", "latitude": "34.745732", "id": 518}, {"latlon": "34.6259001, 36.5761016", "name": "Ash Shawmariyah", "region": "HOMS", "longitude": "36.5761016", "arabic_name": "\u0627\u0644\u0634\u0648\u0645\u0631\u064a\u0629", "latitude": "34.6259001", "id": 519}, {"latlon": "34.872291, 36.528597", "name": "Taldou", "region": "HOMS", "longitude": "36.528597", "arabic_name": "\u062a\u0644\u062f\u0648", "latitude": "34.872291", "id": 520}, {"latlon": "34.802527, 36.707736", "name": "Ter Maela", "region": "HOMS", "longitude": "36.707736", "arabic_name": "\u062a\u064a\u0631 \u0645\u0639\u0644\u0629", "latitude": "34.802527", "id": 521}, {"latlon": "35.923240, 36.643495", "name": "IDLIB ", "region": "IDLIB ", "longitude": "36.643495", "arabic_name": "\u0627\u062f\u0644\u0628", "latitude": "35.923240", "id": 522}, {"latlon": "35\u00b028'2\"N 36\u00b032'18\"E", "name": "Abadeen ", "region": "IDLIB ", "longitude": "36.5383333333", "arabic_name": "\u0639\u0627\u0628\u062f\u064a\u0646", "latitude": "35.4672222222", "id": 523}, {"latlon": "35\u00b042'58\"N   36\u00b031'9\"E ", "name": "Ablin ", "region": "IDLIB ", "longitude": "36.5191666667", "arabic_name": "\u0625\u0628\u0644\u064a\u0646", "latitude": "35.7161111111", "id": 524}, {"latlon": " 35\u00b036'39\"N   36\u00b049'19\"E", "name": "Abu Makki ", "region": "IDLIB ", "longitude": "36.8219444444", "arabic_name": "\u0627\u0628\u0648 \u0645\u0643\u064a", "latitude": "35.6108333333", "id": 525}, {"latlon": "35\u00b044'4\"N   37\u00b06'4\"E ", "name": "Abu al-Zuhour Airbase ", "region": "IDLIB ", "longitude": "37.1011111111", "arabic_name": "\u0627\u0628\u0648 \u0627\u0644\u0636\u0647\u0648\u0631", "latitude": "35.7344444444", "id": 526}, {"latlon": "35\u00b052'31\"N   36\u00b030'3\"E", "name": "Adwan ", "region": "IDLIB ", "longitude": "36.5008333333", "arabic_name": " \u0639\u062f\u0648\u0627\u0646", "latitude": "35.8752777778", "id": 527}, {"latlon": " 35\u00b037'20\"N   36\u00b055'53\"E", "name": "Ajaz", "region": "IDLIB ", "longitude": "36.9313888889", "arabic_name": "\u0642\u0631\u064a\u0629 \u0627\u0639\u062c\u0627\u0632", "latitude": "35.6222222222", "id": 528}, {"latlon": "35\u00b042'48\"N   36\u00b013'8\"E", "name": "Akko ", "region": "IDLIB ", "longitude": "36.2188888889", "arabic_name": "\u0642\u0631\u064a\u0629 \u0639\u0643\u0648", "latitude": "35.7133333333", "id": 529}, {"latlon": "36\u00b09'38\"N   36\u00b023'17\"E", "name": "Allani ", "region": "IDLIB ", "longitude": "36.3880555556", "arabic_name": " \u0642\u0631\u064a\u0629 \u0627\u0644\u0639\u0644\u0627\u0646\u064a", "latitude": "36.1605555556", "id": 530}, {"latlon": "36\u00b015'21\"N   36\u00b042'49\"E ", "name": "Aqrabat ", "region": "IDLIB ", "longitude": "36.7136111111", "arabic_name": "\u0639\u0642\u0631\u0628\u0627\u062a", "latitude": "36.2558333333", "id": 531}, {"latlon": "35\u00b049'N 36\u00b036'E ", "name": "Ariha ", "region": "IDLIB ", "longitude": "36.6", "arabic_name": "\u0627\u0631\u064a\u062d\u0629", "latitude": "35.8166666667", "id": 532}, {"latlon": "35\u00b053'53\"N   36\u00b013'5\"E ", "name": "Armala ", "region": "IDLIB ", "longitude": "36.2180555556", "arabic_name": "\u0627\u0631\u0645\u0644\u0647 ", "latitude": "35.8980555556", "id": 533}, {"latlon": "35\u00b042'5\"N   36\u00b027'31\"E", "name": "Arnaba ", "region": "IDLIB ", "longitude": "36.4586111111", "arabic_name": "\u0627\u0631\u0646\u0628\u0629", "latitude": "35.7013888889", "id": 534}, {"latlon": " 35\u00b058'2\"N   36\u00b021'16\"E ", "name": "Ayn Bayda", "region": "IDLIB ", "longitude": "36.3544444444", "arabic_name": "\u0639\u064a\u0646 \u0627\u0644\u0628\u064a\u0636\u0629", "latitude": "35.9672222222", "id": 535}, {"latlon": "35\u00b046'58\"N   36\u00b010'9\"E", "name": "Ayn Hour ", "region": "IDLIB ", "longitude": "36.1691666667", "arabic_name": " \u0639\u064a\u0646 \u062d\u0648\u0631", "latitude": "35.7827777778", "id": 536}, {"latlon": "35\u00b041'6\"N   36\u00b026'57\"E", "name": "Ayn Larouz ", "region": "IDLIB ", "longitude": "36.4491666667", "arabic_name": "\u0639\u064a\u0646 \u0644\u0627\u0631\u0648\u0632", "latitude": "35.685", "id": 537}, {"latlon": "35\u00b054'6\"N   36\u00b032'36\"E ", "name": "Ayn Sheeb ", "region": "IDLIB ", "longitude": "36.5433333333", "arabic_name": " \u0639\u064a\u0646 \u0634\u064a\u0628", "latitude": "35.9016666667", "id": 538}, {"latlon": "36\u00b03'19\"N   36\u00b024'3\"E ", "name": "Azmarin ", "region": "IDLIB ", "longitude": "36.4008333333", "arabic_name": " \u0627\u0632\u0645\u0631\u064a\u0646", "latitude": "36.0552777778", "id": 539}, {"latlon": "35.8503818N 36.5210932E", "name": "Babullah ", "region": "IDLIB ", "longitude": "36.5210932", "arabic_name": "\u0628\u0627\u0628\u0648\u0644\u0627", "latitude": "35.8503818", "id": 540}, {"latlon": " 35\u00b042'4\"N   36\u00b043'51\"E", "name": "Babila", "region": "IDLIB ", "longitude": "36.7308333333", "arabic_name": "\u0628\u0628\u064a\u0644\u0627", "latitude": "35.7011111111", "id": 541}, {"latlon": "35\u00b032'16\"N   36\u00b040'43\"E", "name": "Babuleen ", "region": "IDLIB ", "longitude": "36.6786111111", "arabic_name": " \u0628\u0627\u0628\u0648\u0644\u064a\u0646", "latitude": "35.5377777778", "id": 542}, {"latlon": " 35\u00b049'59\"N   36\u00b026'9\"E", "name": "Bafatamoun", "region": "IDLIB ", "longitude": "36.4358333333", "arabic_name": "\u0628\u0641\u0637\u0627\u0645\u0648\u0646", "latitude": "35.8330555556", "id": 543}, {"latlon": "35\u00b041'43\"N   36\u00b030'32\"E ", "name": "Balioun ", "region": "IDLIB ", "longitude": "36.5088888889", "arabic_name": " \u0628\u0644\u062f\u0629 \u0628\u0644\u064a\u0648\u0646", "latitude": "35.6952777778", "id": 544}, {"latlon": "35\u00b035'23\"N   36\u00b039'6\"E ", "name": "Basaida ", "region": "IDLIB ", "longitude": "36.6516666667", "arabic_name": "\u0628\u0635\u064a\u062f\u0629", "latitude": "35.5897222222", "id": 545}, {"latlon": "35\u00b048'21\"N   36\u00b029'50\"E", "name": "Basqanoul ", "region": "IDLIB ", "longitude": "36.4972222222", "arabic_name": "\u0628\u0633\u0642\u0644\u0627", "latitude": "35.8058333333", "id": 546}, {"latlon": " 35\u00b051'17\"N   36\u00b024'21\"E", "name": "Bashiriyah ", "region": "IDLIB ", "longitude": "36.4058333333", "arabic_name": "\u0627\u0644\u0628\u0634\u064a\u0631\u064a\u0629", "latitude": "35.8547222222", "id": 547}, {"latlon": "35.5957N 36.584E", "name": "Basqala", "region": "IDLIB ", "longitude": "36.584", "arabic_name": "\u0628\u0633\u0642\u0644\u0627", "latitude": "35.5957", "id": 548}, {"latlon": "35.733170, 36.498320", "name": "Bassamas ", "region": "IDLIB ", "longitude": "36.498320", "arabic_name": "\u0628\u0633\u0627\u0645\u0633", "latitude": "35.733170", "id": 549}, {"latlon": " 35\u00b039'49\"N   37\u00b010'0\"E ", "name": "Bawaider ", "region": "IDLIB ", "longitude": "37.1666666667", "arabic_name": "\u0628\u0648\u064a\u062f\u0631", "latitude": "35.6636111111", "id": 550}, {"latlon": " 36\u00b04'56\"N   36\u00b028'28\"E", "name": "Bayates", "region": "IDLIB ", "longitude": "36.4744444444", "arabic_name": "\u0628\u064a\u0627\u0637\u0633", "latitude": "36.0822222222", "id": 551}, {"latlon": "35.7754816N 36.6159028E", "name": "Bazabor ", "region": "IDLIB ", "longitude": "36.6159028", "arabic_name": "\u0628\u0632\u0627\u0628\u0648\u0631", "latitude": "35.7754816", "id": 552}, {"latlon": "35\u00b048'46\"N   36\u00b011'35\"E", "name": "Bdama ", "region": "IDLIB ", "longitude": "36.1930555556", "arabic_name": "\u0628\u062f\u0627\u0645\u0627", "latitude": "35.8127777778", "id": 553}, {"latlon": "35\u00b054'9\"N   36\u00b036'36\"E", "name": "Bikafloun ", "region": "IDLIB ", "longitude": "36.61", "arabic_name": " \u0628\u0643\u0641\u0644\u0648\u0646", "latitude": "35.9025", "id": 554}, {"latlon": "35\u00b042'34\"N   36\u00b038'25\"E", "name": "Binein ", "region": "IDLIB ", "longitude": "36.6402777778", "arabic_name": "\u0628\u0646\u064a\u0646", "latitude": "35.7094444444", "id": 555}, {"latlon": "35.957925, 36.711673", "name": "Binnish ", "region": "IDLIB ", "longitude": "36.711673", "arabic_name": "\u0628\u0646\u0634", "latitude": "35.957925", "id": 556}, {"latlon": "35.800N 36.3665E", "name": "Bishlamoun ", "region": "IDLIB ", "longitude": "36.3665", "arabic_name": "\u0628\u0634\u0644\u0645\u0648\u0646", "latitude": "35.800", "id": 557}, {"latlon": "35.678N 36.922E", "name": "Burnan ", "region": "IDLIB ", "longitude": "36.922", "arabic_name": " \u0628\u0631\u0646\u0627\u0646", "latitude": "35.678", "id": 558}, {"latlon": "35.788N 36.399E", "name": "Bzaytah", "region": "IDLIB ", "longitude": "36.399", "arabic_name": "\u0628\u0632\u064a\u062a\u0629", "latitude": "35.788", "id": 559}, {"latlon": "35\u00b048'7\"N   36\u00b043'59\"E", "name": "Dadikh ", "region": "IDLIB ", "longitude": "36.7330555556", "arabic_name": "\u062f\u0627\u062f\u064a\u062e", "latitude": "35.8019444444", "id": 560}, {"latlon": "36.3974163, 37.4662636", "name": "Dana ", "region": "IDLIB ", "longitude": "37.4662636", "arabic_name": "\u0627\u0644\u062f\u0627\u0646\u0627", "latitude": "36.3974163", "id": 561}, {"latlon": "35\u00b042'6\"N   36\u00b041'8\"E", "name": "Dana village ", "region": "IDLIB ", "longitude": "36.6855555556", "arabic_name": "\u0642\u0631\u064a\u0629 \u0627\u0644\u062f\u0627\u0646\u0627", "latitude": "35.7016666667", "id": 562}, {"latlon": "35\u00b035'28\"N   36\u00b041'9\"E", "name": "Deir Gharbi ", "region": "IDLIB ", "longitude": "36.6858333333", "arabic_name": "\u062f\u064a\u0631 \u063a\u0631\u0628\u064a", "latitude": "35.5911111111", "id": 563}, {"latlon": " 35\u00b041'57\"N   36\u00b036'21\"E", "name": "Deir Sinbal ", "region": "IDLIB ", "longitude": "36.6058333333", "arabic_name": "\u062f\u064a\u0631\u0633\u0646\u0628\u0644", "latitude": "35.6991666667", "id": 564}, {"latlon": "35.6045N   36.711E", "name": "Deir Sharqi ", "region": "IDLIB ", "longitude": "36.711", "arabic_name": "\u062f\u064a\u0631 \u0634\u0631\u0642\u064a", "latitude": "35.6045", "id": 565}, {"latlon": "35\u00b032'58\"N   36\u00b028'22\"E", "name": "Faqi'a ", "region": "IDLIB ", "longitude": "36.4727777778", "arabic_name": "\u0641\u0643\u064a\u0644\u0629", "latitude": "35.5494444444", "id": 566}, {"latlon": "35\u00b043'30\"N   36\u00b035'55\"E", "name": "Farkaya ", "region": "IDLIB ", "longitude": "36.5986111111", "arabic_name": "\u0641\u0631\u0643\u064a\u0627", "latitude": "35.725", "id": 567}, {"latlon": "35\u00b036'37\"N   36\u00b029'6\"E ", "name": "Fatirah ", "region": "IDLIB ", "longitude": "36.485", "arabic_name": "\u0641\u0637\u064a\u0631\u0629", "latitude": "35.6102777778", "id": 568}, {"latlon": "35\u00b056'3\"N   36\u00b027'12\"E", "name": "Ghafar ", "region": "IDLIB ", "longitude": "36.4533333333", "arabic_name": "- \u0642\u0631\u064a\u0629 \u0627\u0644\u063a\u0641\u0631", "latitude": "35.9341666667", "id": 569}, {"latlon": "35\u00b048'51\"N   36\u00b015'41\"E ", "name": "Ghassaniya ", "region": "IDLIB ", "longitude": "36.2613888889", "arabic_name": " \u0627\u0644\u063a\u0633\u0627\u0646\u064a\u0629", "latitude": "35.8141666667", "id": 570}, {"latlon": "36\u00b01'4\"N   36\u00b031'43\"E ", "name": "Hafsarjah ", "region": "IDLIB ", "longitude": "36.5286111111", "arabic_name": "\u062d\u0641\u0633\u0631\u062c\u0629", "latitude": "36.0177777778", "id": 571}, {"latlon": "35\u00b042'49\"N   36\u00b056'54\"E", "name": "Halban ", "region": "IDLIB ", "longitude": "36.9483333333", "arabic_name": "\u0642\u0631\u064a\u0629 \u062d\u0644\u0628\u0627\u0646", "latitude": "35.7136111111", "id": 572}, {"latlon": "35\u00b055'23\"N   36\u00b021'20\"E", "name": "Hammameh ", "region": "IDLIB ", "longitude": "36.3555555556", "arabic_name": "\u0627\u0644\u062d\u0645\u0627\u0645\u0629", "latitude": "35.9230555556", "id": 573}, {"latlon": "35\u00b040'48\"N   36\u00b038'58\"E", "name": "Hantutin ", "region": "IDLIB ", "longitude": "36.6494444444", "arabic_name": "\u0637\u0631\u064a\u0642 \u062d\u0646\u062a\u0648\u062a\u064a\u0646", "latitude": "35.68", "id": 574}, {"latlon": "34\u00b056'11\"N   36\u00b037'44\"E", "name": "Harbanafsah ", "region": "IDLIB ", "longitude": "36.6288888889", "arabic_name": "\u062d\u0631 \u0628\u0646\u0641\u0634\u0629", "latitude": "34.9363888889", "id": 575}, {"latlon": " 36\u00b04'32\"N   36\u00b038'13\"E", "name": "Harbanoush ", "region": "IDLIB ", "longitude": "36.6369444444", "arabic_name": "\u062d\u0631\u0628\u0646\u0648\u0634", "latitude": "36.0755555556", "id": 576}, {"latlon": " 36\u00b012'N 36\u00b031'E", "name": "Harem  ", "region": "IDLIB ", "longitude": "36.5166666667", "arabic_name": "\u062d\u0627\u0631\u0645", "latitude": "36.2", "id": 577}, {"latlon": "35.7415N 36.821E", "name": "Hartamiyah ", "region": "IDLIB ", "longitude": "36.821", "arabic_name": "\u0627\u0644\u062d\u0631\u062a\u0645\u064a\u0629", "latitude": "35.7415", "id": 578}, {"latlon": "35.05, 40.4666667", "name": "Hawaij ", "region": "IDLIB ", "longitude": "40.4666667", "arabic_name": "\u062d\u0648\u0627\u062c", "latitude": "35.05", "id": 579}, {"latlon": "35\u00b032'51\"N   36\u00b038'38\"E ", "name": "Haysh ", "region": "IDLIB ", "longitude": "36.6438888889", "arabic_name": "\u062d\u064a\u0634", "latitude": "35.5475", "id": 580}, {"latlon": "36.091557, 36.714656", "name": "Hazano ", "region": "IDLIB ", "longitude": "36.714656", "arabic_name": "\u062d\u0632\u0627\u0646\u0648", "latitude": "36.091557", "id": 581}, {"latlon": "35\u00b036'0\"N   36\u00b031'34\"E", "name": "Hazarin ", "region": "IDLIB ", "longitude": "36.5261111111", "arabic_name": "\u062d\u0632\u0627\u0631\u064a\u0646", "latitude": "35.6", "id": 582}, {"latlon": " 35\u00b039'2\"N   36\u00b051'23\"E ", "name": "Heraki", "region": "IDLIB ", "longitude": "36.8563888889", "arabic_name": " \u0642\u0631\u064a\u0629 \u0627\u0644\u062d\u0631\u0627\u0643\u064a", "latitude": "35.6505555556", "id": 583}, {"latlon": " 35\u00b043'8\"N   36\u00b025'31\"E ", "name": "Jadraya", "region": "IDLIB ", "longitude": "36.4252777778", "arabic_name": "\u062c\u062f\u0631\u0627\u064a\u0627", "latitude": "35.7188888889", "id": 584}, {"latlon": "35\u00b043'21\"N   36\u00b042'49\"E", "name": "Jaradeh ", "region": "IDLIB ", "longitude": "36.7136111111", "arabic_name": "\u062c\u064a\u0631\u0627\u062f\u064a", "latitude": "35.7225", "id": 585}, {"latlon": "35\u00b034'27\"N   36\u00b033'2\"E ", "name": "Jbala ", "region": "IDLIB ", "longitude": "36.5505555556", "arabic_name": "\u062c\u0628\u0627\u0644\u0627", "latitude": "35.5741666667", "id": 586}, {"latlon": "35\u00b048'45\"N 36\u00b019'16\"E", "name": "Jisr ash-Shughur", "region": "IDLIB ", "longitude": "36.3211111111", "arabic_name": "\u062c\u0633\u0631 \u0627\u0644\u0634\u063a\u0648\u0631", "latitude": "35.8125", "id": 587}, {"latlon": "35\u00b050'9\"N   36\u00b045'35\"E ", "name": "Joubas ", "region": "IDLIB ", "longitude": "36.7597222222", "arabic_name": "\u062c\u0648\u0628\u0627\u0633", "latitude": "35.8358333333", "id": 588}, {"latlon": " 35\u00b043'6\"N   36\u00b028'27\"E", "name": "Juzef ", "region": "IDLIB ", "longitude": "36.4741666667", "arabic_name": "\u0642\u0631\u064a\u0629 \u062c\u0648\u0632\u064a\u0641", "latitude": "35.7183333333", "id": 589}, {"latlon": " 35\u00b048'55\"N   36\u00b052'13\"E ", "name": "Kafar Amim", "region": "IDLIB ", "longitude": "36.8702777778", "arabic_name": "\u0643\u0641\u0631 \u0639\u0645\u064a\u0645", "latitude": "35.8152777778", "id": 590}, {"latlon": "36\u00b07'14\"N   36\u00b039'21\"E", "name": "Kafar Arouq ", "region": "IDLIB ", "longitude": "36.6558333333", "arabic_name": "\u0643\u0641\u0631 \u0639\u0631\u0648\u0642", "latitude": "36.1205555556", "id": 591}, {"latlon": " 35\u00b026'40\"N   36\u00b034'0\"E ", "name": "Kafar Ayn", "region": "IDLIB ", "longitude": "36.5666666667", "arabic_name": "\u0643\u0641\u0631 \u0639\u064a\u0646", "latitude": "35.4444444444", "id": 592}, {"latlon": "35\u00b046'50\"N   36\u00b043'37\"E", "name": "Kafar Batikh  ", "region": "IDLIB ", "longitude": "36.7269444444", "arabic_name": "\u0643\u0641\u0631 \u0628\u0637\u064a\u062e", "latitude": "35.7805555556", "id": 593}, {"latlon": "36\u00b010'31\"N   36\u00b039'56\"E", "name": "Kafar Dariyan ", "region": "IDLIB ", "longitude": "36.6655555556", "arabic_name": "\u0643\u0641\u0631 \u062f\u0631\u064a\u0627\u0646", "latitude": "36.1752777778", "id": 594}, {"latlon": " 35\u00b045'18\"N   36\u00b035'10\"E ", "name": "Kafar Haya", "region": "IDLIB ", "longitude": "36.5861111111", "arabic_name": "\u0643\u0641\u0631 \u062d\u0627\u064a\u0627", "latitude": "35.755", "id": 595}, {"latlon": "36\u00b011'49\"N   36\u00b028'41\"E ", "name": "Kafar Houm ", "region": "IDLIB ", "longitude": "36.4780555556", "arabic_name": "\u0643\u0641\u0631 \u062d\u0648\u0645", "latitude": "36.1969444444", "id": 596}, {"latlon": "35\u00b058'29\"N   36\u00b036'47\"E ", "name": "Kafar Jalis ", "region": "IDLIB ", "longitude": "36.6130555556", "arabic_name": "\u0643\u0641\u0631 \u062c\u0627\u0644\u0633", "latitude": "35.9747222222", "id": 597}, {"latlon": " 36.1432159N 36.5726813E", "name": "Kafar Kila ", "region": "IDLIB ", "longitude": "36.5726813", "arabic_name": "\u0643\u0641\u0631 \u0643\u064a\u0644\u0627", "latitude": "36.1432159", "id": 598}, {"latlon": "35\u00b047'50\"N   36\u00b037'49\"E ", "name": "Kafar Latah ", "region": "IDLIB ", "longitude": "36.6302777778", "arabic_name": "\u0643\u0641\u0631 \u0644\u0627\u062a\u0627", "latitude": "35.7972222222", "id": 599}, {"latlon": "35\u00b048'19\"N   36\u00b026'27\"E", "name": "Kafar Meed ", "region": "IDLIB ", "longitude": "36.4408333333", "arabic_name": "\u0643\u0641\u0631 \u0645\u064a\u062f", "latitude": "35.8052777778", "id": 600}, {"latlon": "35.5998804, 36.5700531", "name": "Kafar Nabil", "region": "IDLIB ", "longitude": "36.5700531", "arabic_name": "\u0643\u0641\u0631 \u0646\u0628\u064a\u0644", "latitude": "35.5998804", "id": 601}, {"latlon": "35.8395281N 36.644861E", "name": "Kafar Najed ", "region": "IDLIB ", "longitude": "36.644861", "arabic_name": "\u0643\u0641\u0631 \u0646\u0627\u062c\u062f", "latitude": "35.8395281", "id": 602}, {"latlon": "35\u00b058'23\"N   36\u00b033'44\"E", "name": "Kafar Ruhin ", "region": "IDLIB ", "longitude": "36.5622222222", "arabic_name": "\u0643\u0641\u0631\u0648\u062d\u064a\u0646", "latitude": "35.9730555556", "id": 603}, {"latlon": "35\u00b031'34\"N   36\u00b035'22\"E", "name": "Kafar Sejnah ", "region": "IDLIB ", "longitude": "36.5894444444", "arabic_name": "\u0643\u0641\u0631\u0633\u062c\u0646\u0629", "latitude": "35.5261111111", "id": 604}, {"latlon": "35.7676123N 36.5355384E", "name": "Kafar Shalaya", "region": "IDLIB ", "longitude": "36.5355384", "arabic_name": "\u0643\u0641\u0631\u0634\u0644\u0627\u064a\u0627", "latitude": "35.7676123", "id": 605}, {"latlon": "36\u00b06'53\"N 36\u00b030'52\"E", "name": "Kafar Takharim ", "region": "IDLIB ", "longitude": "36.5144444444", "arabic_name": "\u0643\u0641\u0631\u062a\u062e\u0627\u0631\u064a\u0645", "latitude": "36.1147222222", "id": 606}, {"latlon": "35.794677, 36.593871", "name": "Kafar Ziba ", "region": "IDLIB ", "longitude": "36.593871", "arabic_name": "\u0643\u0641\u0631\u0632\u064a\u0628\u0627 ", "latitude": "35.794677", "id": 607}, {"latlon": "35\u00b059'19\"N   36\u00b040'42\"E ", "name": "Kafaraya ", "region": "IDLIB ", "longitude": "36.6783333333", "arabic_name": "\u0643\u0641\u0631\u064a\u0627", "latitude": "35.9886111111", "id": 608}, {"latlon": "35\u00b052'5\"N   36\u00b026'9\"E", "name": "Kaniset Baniez ", "region": "IDLIB ", "longitude": "36.4358333333", "arabic_name": "\u0643\u0646\u064a\u0633\u0629 \u0628\u0646\u064a \u0639\u0632", "latitude": "35.8680555556", "id": 609}, {"latlon": "35.822345, 36.375089", "name": "Kaniset Nakhleh ", "region": "IDLIB ", "longitude": "36.375089", "arabic_name": "\u0643\u0646\u064a\u0633\u0629 \u0646\u062e\u0644\u0629", "latitude": "35.822345", "id": 610}, {"latlon": "35.651295, 36.957151", "name": "Karratin Al-kebire", "region": "IDLIB ", "longitude": "36.957151", "arabic_name": "\u0643\u0631\u0627\u062a\u064a\u0646 \u0643\u0628\u064a\u0631", "latitude": "35.651295", "id": 611}, {"latlon": "35.657990, 36.982428", "name": "Karratin Al-seghire", "region": "IDLIB ", "longitude": "36.982428", "arabic_name": "\u0643\u0631\u0627\u062a\u064a\u0646 \u0635\u063a\u064a\u0631", "latitude": "35.657990", "id": 612}, {"latlon": " 35\u00b050'10\"N   36\u00b023'58\"E", "name": "Kastan ", "region": "IDLIB ", "longitude": "36.3994444444", "arabic_name": "\u0642\u0633\u0637\u0646", "latitude": "35.8361111111", "id": 613}, {"latlon": "36\u00b03'13\"N   36\u00b048'33\"E", "name": "Katian ", "region": "IDLIB ", "longitude": "36.8091666667", "arabic_name": "\u0643\u062a\u064a\u0627\u0646", "latitude": "36.0536111111", "id": 614}, {"latlon": "35.440986, 36.646400", "name": "Khan Shaykhun", "region": "IDLIB ", "longitude": "36.646400", "arabic_name": "\u062e\u0627\u0646 \u0634\u064a\u062e\u0648\u0646", "latitude": "35.440986", "id": 615}, {"latlon": " 35\u00b045'27\"N   36\u00b045'23\"E", "name": "Khan Subul", "region": "IDLIB ", "longitude": "36.7563888889", "arabic_name": "\u062e\u0627\u0646 \u0633\u0628\u0644", "latitude": "35.7575", "id": 616}, {"latlon": " 35\u00b054'33\"N   36\u00b055'29\"E", "name": "Khawari", "region": "IDLIB ", "longitude": "36.9247222222", "arabic_name": "\u062e\u0648\u0627\u0631\u064a", "latitude": "35.9091666667", "id": 617}, {"latlon": "35\u00b054'17\"N   36\u00b011'31\"E", "name": "Khirbet al-Jouz ", "region": "IDLIB ", "longitude": "36.1919444444", "arabic_name": "\u062e\u0631\u0628\u062a \u0627\u0644\u062c\u0648\u0632", "latitude": "35.9047222222", "id": 618}, {"latlon": "35.566N 36.433E", "name": "Koukabah ", "region": "IDLIB ", "longitude": "36.433", "arabic_name": "\u0643\u0648\u0643\u0628\u0629", "latitude": "35.566", "id": 619}, {"latlon": "35\u00b051'51\"N   36\u00b034'13\"E", "name": "Kouin ", "region": "IDLIB ", "longitude": "36.5702777778", "arabic_name": "\u062e\u0648\u064a\u0646", "latitude": "35.8641666667", "id": 620}, {"latlon": " 35\u00b033'50\"N   36\u00b029'0\"E ", "name": "Kursaa ", "region": "IDLIB ", "longitude": "36.4833333333", "arabic_name": "\u0643\u0648\u0631\u0633\u0627", "latitude": "35.5638888889", "id": 621}, {"latlon": "35\u00b043'2\"N   36\u00b024'24\"E", "name": "Laj ", "region": "IDLIB ", "longitude": "36.4066666667", "arabic_name": "\u0627\u0644\u0644\u062c", "latitude": "35.7172222222", "id": 622}, {"latlon": "36\u00b011'29\"N   37\u00b09'46\"E", "name": "Ma'di ", "region": "IDLIB ", "longitude": "37.1627777778", "arabic_name": "\u0645\u063a\u0627\u062f\u064a", "latitude": "36.1913888889", "id": 623}, {"latlon": " 35\u00b033'38\"N   36\u00b044'40\"E", "name": "Ma'isrounah ", "region": "IDLIB ", "longitude": "36.7444444444", "arabic_name": "\u0645\u0639\u0628\u0635\u0631\u0648\u0646\u0629", "latitude": "35.5605555556", "id": 624}, {"latlon": " 35\u00b044'13\"N   36\u00b034'42\"E", "name": "Maghara ", "region": "IDLIB ", "longitude": "36.5783333333", "arabic_name": "\u0645\u063a\u0627\u0631\u0629", "latitude": "35.7369444444", "id": 625}, {"latlon": "35\u00b049'10\"N   36\u00b029'51\"E ", "name": "Mahalah ", "region": "IDLIB ", "longitude": "36.4975", "arabic_name": "\u0645\u062d\u0644\u0627", "latitude": "35.8194444444", "id": 626}, {"latlon": "35\u00b047'10\"N   36\u00b028'16\"E", "name": "Mahambel ", "region": "IDLIB ", "longitude": "36.4711111111", "arabic_name": "\u0645\u062d\u0645\u0628\u0644 \u0627\u062f\u0644\u0628", "latitude": "35.7861111111", "id": 627}, {"latlon": " 35.831N 36.681E", "name": "Majadaliya ", "region": "IDLIB ", "longitude": "36.681", "arabic_name": "\u0645\u062c\u062f\u0644\u064a\u0627", "latitude": "35.831", "id": 628}, {"latlon": " 35\u00b046'42\"N   36\u00b039'2\"E ", "name": "Mantaf ", "region": "IDLIB ", "longitude": "36.6505555556", "arabic_name": "\u0645\u0646\u0637\u0641", "latitude": "35.7783333333", "id": 629}, {"latlon": " 35\u00b033'38\"N   36\u00b044'40\"E", "name": "Maisarounah ", "region": "IDLIB ", "longitude": "36.7444444444", "arabic_name": "\u0645\u064a\u0633\u0631\u0648\u0646\u0629", "latitude": "35.5605555556", "id": 630}, {"latlon": "35\u00b048'21\"N   36\u00b039'42\"E ", "name": "Mar Baleet ", "region": "IDLIB ", "longitude": "36.6616666667", "arabic_name": "\u0645\u0639\u0631\u0628\u0644\u064a\u062a", "latitude": "35.8058333333", "id": 631}, {"latlon": " 35\u00b046'43\"N   36\u00b046'6\"E  ", "name": "Mar Dibsah ", "region": "IDLIB ", "longitude": "36.7683333333", "arabic_name": "\u0645\u0639\u0631\u062f\u0628\u0633\u0629", "latitude": "35.7786111111", "id": 632}, {"latlon": "35\u00b036'44\"N   36\u00b043'33\"E ", "name": "Mar Shamarin ", "region": "IDLIB ", "longitude": "36.7258333333", "arabic_name": "\u0645\u0639\u0631\u0634\u0645\u0627\u0631\u064a\u0646", "latitude": "35.6122222222", "id": 633}, {"latlon": " 35\u00b046'42\"N   36\u00b039'2\"E", "name": "Mar Zaf ", "region": "IDLIB ", "longitude": "36.6505555556", "arabic_name": "\u0645\u0639\u0631\u0632\u0627\u0641", "latitude": "35.7783333333", "id": 634}, {"latlon": " 35\u00b033'17\"N   36\u00b034'33\"E", "name": "Mar Zita ", "region": "IDLIB ", "longitude": "36.5758333333", "arabic_name": "\u0645\u0639\u0631\u0632\u064a\u062a\u0627", "latitude": "35.5547222222", "id": 635}, {"latlon": "35\u00b042'30\"N   36\u00b028'40\"E", "name": "Marateh ", "region": "IDLIB ", "longitude": "36.4777777778", "arabic_name": "\u0645\u0639\u0631\u0627\u062a\u0647", "latitude": "35.7083333333", "id": 636}, {"latlon": "35\u00b032'57\"N   36\u00b032'27\"E", "name": "Marat Hermeh ", "region": "IDLIB ", "longitude": "36.5408333333", "arabic_name": "\u0645\u0639\u0631\u0629 \u062d\u0631\u0645\u0629", "latitude": "35.5491666667", "id": 637}, {"latlon": "35\u00b034'37\"N   36\u00b039'28\"E ", "name": "Marat Hitat ", "region": "IDLIB ", "longitude": "36.6577777778", "arabic_name": "\u0645\u0639\u0631\u0629 \u062d\u0637\u0627\u0637", "latitude": "35.5769444444", "id": 638}, {"latlon": "35\u00b034'27\"N   36\u00b033'2\"E ", "name": "Marat Mattar ", "region": "IDLIB ", "longitude": "36.5505555556", "arabic_name": "\u0645\u0639\u0631\u0629 \u0645\u0637\u0631", "latitude": "35.5741666667", "id": 639}, {"latlon": "36.012624, 36.671501", "name": "Maret Misrin ", "region": "IDLIB ", "longitude": "36.671501", "arabic_name": "\u0645\u0639\u0631\u0629 \u0645\u0635\u0631\u064a\u0646", "latitude": "36.012624", "id": 640}, {"latlon": "36\u00b02'8\"N   36\u00b050'19\"E", "name": "Maret Al-khaskah", "region": "IDLIB ", "longitude": "36.8386111111", "arabic_name": "\u0645\u0639\u0631\u0629 \u0627\u0644\u062e\u0627\u0633\u0643\u0629", "latitude": "36.0355555556", "id": 641}, {"latlon": "35.816461, 36.612030", "name": "Ariha mantiqah ", "region": "IDLIB ", "longitude": "36.612030", "arabic_name": "\u0623\u0631\u064a\u062d\u0627", "latitude": "35.816461", "id": 642}, {"latlon": "35.836098, 36.677899", "name": "Mjdlya", "region": "IDLIB ", "longitude": "36.677899", "arabic_name": "\u0645\u062c\u062f\u0644\u064a\u0627", "latitude": "35.836098", "id": 643}, {"latlon": "35.864065, 36.569860", "name": "Kourin ", "region": "IDLIB ", "longitude": "36.569860", "arabic_name": "\u0643\u0648\u0631\u064a\u0646", "latitude": "35.864065", "id": 644}, {"latlon": "35\u00b047'27\"N 36\u00b034'5\"E", "name": "Urum al-Jouz ", "region": "IDLIB ", "longitude": "36.5680555556", "arabic_name": "\u0623\u0648\u0631\u0645 \u0627\u0644\u062c\u0648\u0632", "latitude": "35.7908333333", "id": 645}, {"latlon": "35.6751474, 36.2109375", "name": "Ehsem nahiyah", "region": "IDLIB ", "longitude": "36.2109375", "arabic_name": "\u0623\u062d\u0633\u0645", "latitude": "35.6751474", "id": 646}, {"latlon": "35\u00b041'45\"N 36\u00b030'2\"E", "name": "Balioun ", "region": "IDLIB ", "longitude": "36.5005555556", "arabic_name": " \u0628\u0644\u064a\u0648\u0646 ", "latitude": "35.6958333333", "id": 647}, {"latlon": "35.688009, 36.538811", "name": "al-Barrah ", "region": "IDLIB ", "longitude": "36.538811", "arabic_name": "\u0627\u0644\u0628\u0627\u0631\u0629", "latitude": "35.688009", "id": 648}, {"latlon": "35.6751474, 36.2109375", "name": "Ehsem ", "region": "IDLIB ", "longitude": "36.2109375", "arabic_name": "\u0627\u062d\u0633\u0645", "latitude": "35.6751474", "id": 649}, {"latlon": "35.659545, 36.484566", "name": "Kansafrah ", "region": "IDLIB ", "longitude": "36.484566", "arabic_name": "\u0643\u0646\u0635\u0641\u0631\u0629", "latitude": "35.659545", "id": 650}, {"latlon": "35.6603059, 36.4789921", "name": "ar-Rami ", "region": "IDLIB ", "longitude": "36.4789921", "arabic_name": "\u0631\u064a\u0641 \u0625\u062f\u0644\u0628 \u0631\u0627\u0645\u064a", "latitude": "35.6603059", "id": 651}, {"latlon": "35\u00b040'58\"N 36\u00b025'13\"E", "name": "Mhambel nahiyah", "region": "IDLIB ", "longitude": "36.4202777778", "arabic_name": "\u0645\u062d\u0645\u0628\u0644 \u0627\u0644\u0636\u0627\u062d\u064a\u0629", "latitude": "35.6827777778", "id": 652}, {"latlon": "35\u00b040'58\"N 36\u00b025'13\"E", "name": "Mahambel ", "region": "IDLIB ", "longitude": "36.4202777778", "arabic_name": "\u0645\u062d\u0645\u0628\u0644", "latitude": "35.6827777778", "id": 653}, {"latlon": "36.212339, 36.520036", "name": "Harem mantiqah ", "region": "IDLIB ", "longitude": "36.520036", "arabic_name": "\u062d\u0627\u0631\u0645", "latitude": "36.212339", "id": 654}, {"latlon": "36.083372, 36.499779", "name": "Armanaz nahiyah", "region": "IDLIB ", "longitude": "36.499779", "arabic_name": "\u0627\u0631\u0645\u0646\u0627\u0632", "latitude": "36.083372", "id": 655}, {"latlon": "36.214386, 36.769459", "name": "al-Dana nahiyah ", "region": "IDLIB ", "longitude": "36.769459", "arabic_name": "\u0627\u0644\u062f\u0627\u0646\u0627", "latitude": "36.214386", "id": 656}, {"latlon": "36.212339, 36.520036", "name": "Harem nahiyah", "region": "IDLIB ", "longitude": "36.520036", "arabic_name": "\u062d\u0627\u0631\u0645", "latitude": "36.212339", "id": 657}, {"latlon": "36.116595, 36.515064", "name": "Kafr Takharim nahiyah ", "region": "IDLIB ", "longitude": "36.515064", "arabic_name": "\u0643\u0641\u0631 \u062a\u062e\u0627\u0631\u064a\u0645", "latitude": "36.116595", "id": 658}, {"latlon": "36.138646, 36.610544", "name": "Qorqania nahiyah", "region": "IDLIB ", "longitude": "36.610544", "arabic_name": "\u0642\u0648\u0631\u0642\u0627\u0646\u064a\u0627", "latitude": "36.138646", "id": 659}, {"latlon": "36.140730, 36.455368", "name": "Salqin nahiyah", "region": "IDLIB ", "longitude": "36.455368", "arabic_name": "\u0633\u0644\u0642\u064a\u0646", "latitude": "36.140730", "id": 660}, {"latlon": "35.958237, 36.711802", "name": "Binnish nahiyah ", "region": "IDLIB ", "longitude": "36.711802", "arabic_name": "\u0628\u0646\u0634", "latitude": "35.958237", "id": 661}, {"latlon": "35.863558, 36.799534", "name": "Saraqib nahiyah ", "region": "IDLIB ", "longitude": "36.799534", "arabic_name": "\u0633\u0631\u0627\u0642\u0628", "latitude": "35.863558", "id": 662}, {"latlon": "35.900312, 36.716094", "name": "Sarmin nahiyah", "region": "IDLIB ", "longitude": "36.716094", "arabic_name": "\u0633\u0631\u0645\u064a\u0646", "latitude": "35.900312", "id": 663}, {"latlon": "35.997190, 36.786204", "name": "Taftanaz ", "region": "IDLIB ", "longitude": "36.786204", "arabic_name": "\u062a\u0641\u062a\u0646\u0627\u0632", "latitude": "35.997190", "id": 664}, {"latlon": "35.812670, 36.193244", "name": "Bidama nahiyah ", "region": "IDLIB ", "longitude": "36.193244", "arabic_name": " \u0628\u062f\u0627\u0645\u0627", "latitude": "35.812670", "id": 665}, {"latlon": "35.992506, 36.392651", "name": "Darkoush nahiyah ", "region": "IDLIB ", "longitude": "36.392651", "arabic_name": "\u062f\u0631\u0643\u0648\u0634", "latitude": "35.992506", "id": 666}, {"latlon": "35.884790, 36.290546", "name": "al-Janudiyah nahiyah ", "region": "IDLIB ", "longitude": "36.290546", "arabic_name": "\u0627\u0644\u062c\u0627\u0646\u0648\u062f\u064a\u0629", "latitude": "35.884790", "id": 667}, {"latlon": "35.549110, 36.644211", "name": "Haish najiyah ", "region": "IDLIB ", "longitude": "36.644211", "arabic_name": " \u0642\u0631\u064a\u0629 \u062d\u064a\u0634", "latitude": "35.549110", "id": 668}, {"latlon": "35.638899, 36.671548", "name": "Maret Numan mantiqah ", "region": "IDLIB ", "longitude": "36.671548", "arabic_name": " \u0645\u0639\u0631\u0629 \u0627\u0644\u0646\u0639\u0645\u0627\u0646", "latitude": "35.638899", "id": 669}, {"latlon": "35.6141381, 36.5606273", "name": "Kafranbel nahiyah ", "region": "IDLIB ", "longitude": "36.5606273", "arabic_name": "\u0643\u0641\u0631\u0646\u0628\u0644", "latitude": "35.6141381", "id": 670}, {"latlon": "35.591470, 37.005150", "name": "Sanjar nahiyah ", "region": "IDLIB ", "longitude": "37.005150", "arabic_name": "\u0646\u0627\u062d\u064a\u0629 \u0633\u0646\u062c\u0627\u0631", "latitude": "35.591470", "id": 671}, {"latlon": "35.456562, 36.745706", "name": "Tamana'ah nahiyah ", "region": "IDLIB ", "longitude": "36.745706", "arabic_name": "\u0627\u0644\u062a\u0645\u0627\u0646\u0639\u0629", "latitude": "35.456562", "id": 672}, {"latlon": "35\u00b034'21\"N   36\u00b031'3\"E", "name": "Maret Sin", "region": "IDLIB ", "longitude": "36.5175", "arabic_name": "\u0645\u0639\u0631\u0629 \u0627\u0644\u0635\u064a\u0646", "latitude": "35.5725", "id": 673}, {"latlon": "35\u00b044'18\"N   36\u00b033'51\"E", "name": "Mariyan ", "region": "IDLIB ", "longitude": "36.5641666667", "arabic_name": "\u0645\u0631\u0639\u064a\u0627\u0646", "latitude": "35.7383333333", "id": 674}, {"latlon": " 35\u00b055'10\"N   36\u00b024'48\"E ", "name": "Mariyamayn ", "region": "IDLIB ", "longitude": "36.4133333333", "arabic_name": "\u0645\u0631\u064a\u0645\u064a\u0646", "latitude": "35.9194444444", "id": 675}, {"latlon": "35.9265175N 36.5273465E", "name": "Maratin ", "region": "IDLIB ", "longitude": "36.5273465", "arabic_name": "\u0645\u0631\u062a\u064a\u0646", "latitude": "35.9265175", "id": 676}, {"latlon": " 35\u00b051'43\"N   36\u00b022'18\"E ", "name": "Mashmashan ", "region": "IDLIB ", "longitude": "36.3716666667", "arabic_name": " \u0645\u0634\u0645\u0634\u0627\u0646", "latitude": "35.8619444444", "id": 677}, {"latlon": " 35.7974757N 36.5571689E", "name": "Ma'tarem ", "region": "IDLIB ", "longitude": "36.5571689", "arabic_name": "\u0645\u0639\u062a\u0631\u0645", "latitude": "35.7974757", "id": 678}, {"latlon": " 35\u00b029'59\"N   36\u00b038'22\"E", "name": "Mouqa ", "region": "IDLIB ", "longitude": "36.6394444444", "arabic_name": "\u0645\u0648\u0642\u0627", "latitude": "35.4997222222", "id": 679}, {"latlon": " 35\u00b039'23\"N   36\u00b026'22\"E", "name": "Muzrah ", "region": "IDLIB ", "longitude": "36.4394444444", "arabic_name": "\u0627\u0644\u0645\u0648\u0632\u0631\u0629", "latitude": "35.6563888889", "id": 680}, {"latlon": "35\u00b056'45\"N   36\u00b025'2\"E", "name": "Nabhan ", "region": "IDLIB ", "longitude": "36.4172222222", "arabic_name": "\u0646\u0628\u0647\u0627\u0646", "latitude": "35.9458333333", "id": 681}, {"latlon": "35\u00b048'0\"N   36\u00b028'15\"E", "name": "Nahal ", "region": "IDLIB ", "longitude": "36.4708333333", "arabic_name": "\u0646\u0627\u062d\u0644", "latitude": "35.8", "id": 682}, {"latlon": "35\u00b050'42\"N   36\u00b035'59\"E", "name": "Nahlaya ", "region": "IDLIB ", "longitude": "36.5997222222", "arabic_name": "\u0646\u062d\u0644\u064a\u0629", "latitude": "35.845", "id": 683}, {"latlon": "35\u00b048'26\"N   36\u00b033'54\"E", "name": "Nahleh ", "region": "IDLIB ", "longitude": "36.565", "arabic_name": "\u0646\u062d\u0644\u0629", "latitude": "35.8072222222", "id": 684}, {"latlon": "35\u00b029'56\"N   36\u00b032'26\"E", "name": "Naqayr ", "region": "IDLIB ", "longitude": "36.5405555556", "arabic_name": "\u0642\u0631\u064a\u0629 \u0627\u0644\u0646\u0642\u064a\u0631", "latitude": "35.4988888889", "id": 685}, {"latlon": " 35\u00b035'9\"N   36\u00b047'26\"E ", "name": "Qarati ", "region": "IDLIB ", "longitude": "36.7905555556", "arabic_name": "\u0642\u0631\u0627\u0637\u064a", "latitude": "35.5858333333", "id": 686}, {"latlon": "35\u00b053'1\"N   36\u00b041'0\"E", "name": "Qominas ", "region": "IDLIB ", "longitude": "36.6833333333", "arabic_name": "\u0642\u0645\u064a\u0646\u0627\u0633", "latitude": "35.8836111111", "id": 687}, {"latlon": " 35\u00b038'7\"N   36\u00b025'36\"E ", "name": "Qouqafin ", "region": "IDLIB ", "longitude": "36.4266666667", "arabic_name": "\u0642\u0648\u0642\u0641\u064a\u0646 ", "latitude": "35.6352777778", "id": 688}, {"latlon": " 36\u00b08'19\"N   36\u00b036'45\"E", "name": "Qourqaniya", "region": "IDLIB ", "longitude": "36.6125", "arabic_name": "\u0642\u0640\u0648\u0631\u0642\u0640\u0627\u0646\u064a\u0627 ", "latitude": "36.1386111111", "id": 689}, {"latlon": "35\u00b030'10\"N   36\u00b034'36\"E", "name": "Rakaya ", "region": "IDLIB ", "longitude": "36.5766666667", "arabic_name": "\u0631\u0643\u0627\u064a\u0627 \u0633\u062c\u0646\u0629", "latitude": "35.5027777778", "id": 690}, {"latlon": " 35\u00b045'55\"N   36\u00b033'36\"E", "name": "Rami ", "region": "IDLIB ", "longitude": "36.56", "arabic_name": "\u0627\u0644\u0631\u0627\u0645\u064a", "latitude": "35.7652777778", "id": 691}, {"latlon": "35.783N 36.850E", "name": "Rayan ", "region": "IDLIB ", "longitude": "36.850", "arabic_name": "\u0631\u064a\u0627\u0646", "latitude": "35.783", "id": 692}, {"latlon": "35\u00b052'33\"N   36\u00b054'4\"E ", "name": "Rusafa ", "region": "IDLIB ", "longitude": "36.9011111111", "arabic_name": "\u0627\u0631\u0635\u0627\u0641\u0629", "latitude": "35.8758333333", "id": 693}, {"latlon": "35\u00b050'28\"N   36\u00b044'7\"E", "name": "San ", "region": "IDLIB ", "longitude": "36.7352777778", "arabic_name": "\u0633\u0627\u0646", "latitude": "35.8411111111", "id": 694}, {"latlon": " 35.7513N 36.4348E", "name": "Sararif ", "region": "IDLIB ", "longitude": "36.4348", "arabic_name": "\u0635\u0631\u0627\u0631\u064a\u0641", "latitude": "35.7513", "id": 695}, {"latlon": " 35\u00b045'25\"N   36\u00b037'35\"E", "name": "Sarjah ", "region": "IDLIB ", "longitude": "36.6263888889", "arabic_name": "\u0633\u0631\u062c\u0629", "latitude": "35.7569444444", "id": 696}, {"latlon": "35\u00b036'55\"N   36\u00b052'7\"E", "name": "Saqi'ah ", "region": "IDLIB ", "longitude": "36.8686111111", "arabic_name": "\u0627\u0644\u0635\u0642\u064a\u0639\u0629", "latitude": "35.6152777778", "id": 697}, {"latlon": "35\u00b040'58\"N   36\u00b025'13\"E ", "name": "Shagurit ", "region": "IDLIB ", "longitude": "36.4202777778", "arabic_name": "\u0627\u0644\u0634\u0627\u063a\u0648\u0631\u064a\u062a", "latitude": "35.6827777778", "id": 698}, {"latlon": "35\u00b046'1\"N   36\u00b051'42\"E", "name": "Sheikh Idris", "region": "IDLIB ", "longitude": "36.8616666667", "arabic_name": "\u0634\u064a\u062e \u0627\u062f\u0631\u064a\u0633", "latitude": "35.7669444444", "id": 699}, {"latlon": "35\u00b058'9\"N   36\u00b030'38\"E ", "name": "Sheikh Yusef ", "region": "IDLIB ", "longitude": "36.5105555556", "arabic_name": "\u0634\u064a\u062e \u064a\u0648\u0633\u0641", "latitude": "35.9691666667", "id": 700}, {"latlon": " 36\u00b01'3\"N   36\u00b047'34\"E", "name": "Shillakh ", "region": "IDLIB ", "longitude": "36.7927777778", "arabic_name": "\u0634\u0644\u0644\u062e", "latitude": "36.0175", "id": 701}, {"latlon": " 35\u00b050'57\"N   36\u00b016'59\"E ", "name": "Shughour ", "region": "IDLIB ", "longitude": "36.2830555556", "arabic_name": "\u0634\u0627\u063a\u0648\u0631", "latitude": "35.8491666667", "id": 702}, {"latlon": "35.800N 36.916E", "name": "Shuhah ", "region": "IDLIB ", "longitude": "36.916", "arabic_name": "\u0634\u0648\u062d\u0629", "latitude": "35.800", "id": 703}, {"latlon": "35\u00b042'51\"N   36\u00b017'3\"E", "name": "Sormaniyah ", "region": "IDLIB ", "longitude": "36.2841666667", "arabic_name": "\u0627\u0644\u0633\u0631\u0645\u0627\u0646\u064a\u0629", "latitude": "35.7141666667", "id": 704}, {"latlon": "35\u00b032'28\"N   36\u00b043'40\"E", "name": "Tah ", "region": "IDLIB ", "longitude": "36.7277777778", "arabic_name": "\u0637\u0631\u064a\u0642 \u0627\u0644\u062a\u062d", "latitude": "35.5411111111", "id": 705}, {"latlon": "35\u00b030'35\"N   36\u00b042'45\"E", "name": "Tahtaya ", "region": "IDLIB ", "longitude": "36.7125", "arabic_name": "\u062a\u062d\u062a\u0627\u064a\u0627", "latitude": "35.5097222222", "id": 706}, {"latlon": "35\u00b043'31\"N   36\u00b051'9\"E", "name": "Tal Dabs ", "region": "IDLIB ", "longitude": "36.8525", "arabic_name": " \u062a\u0644 \u062f\u0628\u0633", "latitude": "35.7252777778", "id": 707}, {"latlon": "36.189724, 36.772399", "name": "Tal Karameh ", "region": "IDLIB ", "longitude": "36.772399", "arabic_name": "\u062a\u0644 \u0643\u0631\u0627\u0645\u0629", "latitude": "36.189724", "id": 708}, {"latlon": "35\u00b048'40\"N   36\u00b047'23\"E", "name": "Tal Mardikh ", "region": "IDLIB ", "longitude": "36.7897222222", "arabic_name": "\u062a\u0644 \u0645\u0631\u062f\u064a\u062e", "latitude": "35.8111111111", "id": 709}, {"latlon": "36.0666N 36.750E", "name": "Tal Sandal ", "region": "IDLIB ", "longitude": "36.750", "arabic_name": "\u062a\u0644 \u0635\u0646\u062f\u0644", "latitude": "36.0666", "id": 710}, {"latlon": " 35\u00b047'53\"N   36\u00b059'28\"E ", "name": "Tal Sultan ", "region": "IDLIB ", "longitude": "36.9911111111", "arabic_name": "\u062a\u0644 \u0633\u0644\u0637\u0627\u0646", "latitude": "35.7980555556", "id": 711}, {"latlon": " 35\u00b058'0\"N   36\u00b050'15\"E", "name": "Talheya ", "region": "IDLIB ", "longitude": "36.8375", "arabic_name": "\u0637\u0644\u062d\u064a\u0629", "latitude": "35.9666666667", "id": 712}, {"latlon": " 35\u00b027'22\"N   36\u00b045'19\"E ", "name": "Tamanaah", "region": "IDLIB ", "longitude": "36.7552777778", "arabic_name": "\u0627\u0644\u062a\u0645\u0627\u0646\u0639\u0629", "latitude": "35.4561111111", "id": 713}, {"latlon": " 35.5254327N 36.4826989E", "name": "Termala ", "region": "IDLIB ", "longitude": "36.4826989", "arabic_name": " \u0642\u0631\u064a\u0629 \u062a\u0631\u0645\u0644\u0627", "latitude": "35.5254327", "id": 714}, {"latlon": " 36\u00b013'41\"N   36\u00b048'58\"E", "name": "Termanin ", "region": "IDLIB ", "longitude": "36.8161111111", "arabic_name": "\u062a\u064a\u0631\u0645\u0627\u0646\u064a\u0646", "latitude": "36.2280555556", "id": 715}, {"latlon": " 35\u00b051'38\"N   36\u00b046'10\"E ", "name": "Tranbeh ", "region": "IDLIB ", "longitude": "36.7694444444", "arabic_name": "\u0637\u0631\u0645\u0628\u0629", "latitude": "35.8605555556", "id": 716}, {"latlon": "36.2165N 36.575E", "name": "Tur Laha ", "region": "IDLIB ", "longitude": "36.575", "arabic_name": "\u0637\u0648\u0631\u0644\u0627\u0647\u0627 ", "latitude": "36.2165", "id": 717}, {"latlon": "35\u00b059'1\"N   36\u00b022'44\"E", "name": "Zahera ", "region": "IDLIB ", "longitude": "36.3788888889", "arabic_name": "\u0627\u0644\u0632\u0627\u0647\u0631\u0629", "latitude": "35.9836111111", "id": 718}, {"latlon": "35\u00b057'15\"N   36\u00b020'23\"E", "name": "Zarzour ", "region": "IDLIB ", "longitude": "36.3397222222", "arabic_name": "\u0632\u0631\u0632\u0648\u0631", "latitude": "35.9541666667", "id": 719}, {"latlon": "35\u00b050'27\"N   36\u00b013'29\"E", "name": "Zeiyniyah ", "region": "IDLIB ", "longitude": "36.2247222222", "arabic_name": "\u0627\u0644\u0632\u0639\u064a\u0646\u064a\u0629", "latitude": "35.8408333333", "id": 720}, {"latlon": "35\u00b032'12\"N 35\u00b046'54\"E", "name": "LATTAKIA", "region": "LATTAKIA", "longitude": "35.7816666667", "arabic_name": "\u0627\u0644\u0644\u0627\u0630\u0642\u064a\u0629", "latitude": "35.5366666667", "id": 721}, {"latlon": "35\u00b032'13\"N   35\u00b047'9\"E", "name": "Ali Jamal ", "region": "LATTAKIA", "longitude": "35.7858333333", "arabic_name": "\u0627\u0644\u062c\u0645\u0627\u0644", "latitude": "35.5369444444", "id": 722}, {"latlon": " 35\u00b030'20\"N   35\u00b046'27\"E ", "name": "Amoud ", "region": "LATTAKIA", "longitude": "35.7741666667", "arabic_name": "\u062d\u064a \u0627\u0644\u0639\u0627\u0645\u0648\u062f", "latitude": "35.5055555556", "id": 723}, {"latlon": "35\u00b030'56\"N   35\u00b047'0\"E ", "name": "Ashrafiyah ", "region": "LATTAKIA", "longitude": "35.7833333333", "arabic_name": "\u0627\u0644\u0623\u0634\u0631\u0641\u064a\u0629", "latitude": "35.5155555556", "id": 724}, {"latlon": "35\u00b031'16\"N   35\u00b046'53\"E", "name": "Awainah ", "region": "LATTAKIA", "longitude": "35.7813888889", "arabic_name": "\u0627\u0644\u0639\u0648\u064a\u0646\u0629", "latitude": "35.5211111111", "id": 725}, {"latlon": "35\u00b030'36\"N   35\u00b046'46\"E", "name": "Beir Qaddar mosque", "region": "LATTAKIA", "longitude": "35.7794444444", "arabic_name": "\u062c\u0627\u0645\u0639 \u0627\u0644\u0628\u064a\u0631\u0642\u062f\u0627\u0631", "latitude": "35.51", "id": 726}, {"latlon": "35\u00b031'15\"N   35\u00b046'57\"E", "name": "Joud mosque", "region": "LATTAKIA", "longitude": "35.7825", "arabic_name": "\u062c\u0627\u0645\u0639 \u0627\u0644\u062c\u0648\u062f", "latitude": "35.5208333333", "id": 727}, {"latlon": " 35\u00b032'7\"N   35\u00b047'40\"E ", "name": "Qneinas ", "region": "LATTAKIA", "longitude": "35.7944444444", "arabic_name": "\u062d\u064a \u0627\u0644\u0642\u0646\u064a\u0646\u0635", "latitude": "35.5352777778", "id": 728}, {"latlon": " 35\u00b032'12\"N   35\u00b046'54\"E", "name": "Raml al-Shamali", "region": "LATTAKIA", "longitude": "35.7816666667", "arabic_name": "\u0627\u0644\u0631\u0645\u0644 \u0627\u0644\u0634\u0645\u0627\u0644\u064a", "latitude": "35.5366666667", "id": 729}, {"latlon": "35\u00b031'15\"N   35\u00b050'8\"E ", "name": "Sidawi ", "region": "LATTAKIA", "longitude": "35.8355555556", "arabic_name": "\u0628\u0633\u062a\u0627\u0646 \u0627\u0644\u0635\u064a\u062f\u0627\u0648\u064a", "latitude": "35.5208333333", "id": 730}, {"latlon": "35\u00b030'47\"N   35\u00b046'40\"E ", "name": "Sleibeh ", "region": "LATTAKIA", "longitude": "35.7777777778", "arabic_name": " \u0627\u0644\u0635\u0644\u064a\u0628\u0629", "latitude": "35.5130555556", "id": 731}, {"latlon": "35\u00b030'22\"N   35\u00b046'20\"E", "name": "Sleibeh Projects ", "region": "LATTAKIA", "longitude": "35.7722222222", "arabic_name": "\u0645\u0634\u0631\u0648\u0639 \u0627\u0644\u0635\u0644\u064a\u0628\u0629", "latitude": "35.5061111111", "id": 732}, {"latlon": " 35\u00b030'32\"N   35\u00b046'56\"E ", "name": "Tabayat ", "region": "LATTAKIA", "longitude": "35.7822222222", "arabic_name": "\u062d\u064a \u0627\u0644\u0637\u0627\u0628\u064a\u0627\u062a", "latitude": "35.5088888889", "id": 733}, {"latlon": " 35\u00b030'59\"N   35\u00b046'35\"E ", "name": "Tijar Souj ", "region": "LATTAKIA", "longitude": "35.7763888889", "arabic_name": "\u0634\u0627\u0631\u0639 \u0633\u064a\u0641 \u0627\u0644\u062f\u0648\u0644\u0629", "latitude": "35.5163888889", "id": 734}, {"latlon": "35.7111162N 36.2172031E", "name": "Aku", "region": "LATTAKIA", "longitude": "36.2172031", "arabic_name": "\u0639\u0643\u0648", "latitude": "35.7111162", "id": 735}, {"latlon": "35.749246, 36.096997", "name": "obin", "region": "LATTAKIA", "longitude": "36.096997", "arabic_name": "\u0627\u0648\u0628\u064a\u0646", "latitude": "35.749246", "id": 736}, {"latlon": "35.7333333, 36.1166667", "name": "Aydu ", "region": "LATTAKIA", "longitude": "36.1166667", "arabic_name": "\u0639\u064a\u062f\u0648", "latitude": "35.7333333", "id": 737}, {"latlon": "35.743N 36.1775E", "name": "Ayn al-Qantarah", "region": "LATTAKIA", "longitude": "36.1775", "arabic_name": "\u0639\u064a\u0646 \u0627\u0644\u0642\u0646\u0637\u0631\u0629 ", "latitude": "35.743", "id": 738}, {"latlon": "35\u00b040'20\"N   36\u00b08'9\"E", "name": "Dorrin", "region": "LATTAKIA", "longitude": "36.1358333333", "arabic_name": "\u0637\u0631\u064a\u0642 \u062f\u0648\u0631\u064a\u0646", "latitude": "35.6722222222", "id": 739}, {"latlon": " 35.7005N 36.150E", "name": "Duwayrikah", "region": "LATTAKIA", "longitude": "36.150", "arabic_name": "\u062f\u0648\u064a\u0631\u0643\u0629", "latitude": "35.7005", "id": 740}, {"latlon": "35\u00b042'41\"N 36\u00b05'53\"E", "name": "Ghanaymiyah", "region": "LATTAKIA", "longitude": "36.0980555556", "arabic_name": "\u0627\u0644\u063a\u0646\u064a\u0645\u064a\u0629", "latitude": "35.7113888889", "id": 741}, {"latlon": "35\u00b035'55\"N 36\u00b02'6\"E", "name": "Haffah", "region": "LATTAKIA", "longitude": "36.035", "arabic_name": "\u0627\u0644\u062d\u0641\u0629", "latitude": "35.5986111111", "id": 742}, {"latlon": "35.6516387    36.2152618", "name": "Jabal Akrad", "region": "LATTAKIA", "longitude": "36.2152618", "arabic_name": "\u062c\u0628\u0644 \u0627\u0644\u0627\u0643\u0631\u0627\u062f", "latitude": "35.6516387", "id": 743}, {"latlon": "35.7874449N 36.0372269E", "name": "Jabal Turkman ", "region": "LATTAKIA", "longitude": "36.0372269", "arabic_name": "\u062c\u0628\u0644 \u062a\u0631\u0643\u0645\u0627\u0646", "latitude": "35.7874449", "id": 744}, {"latlon": "35\u00b022'18\"N 35\u00b056'10\"E", "name": "Jableh", "region": "LATTAKIA", "longitude": "35.9361111111", "arabic_name": "\u062c\u0628\u0644\u0629", "latitude": "35.3716666667", "id": 745}, {"latlon": "35.717N 36.232E", "name": "Kabanah", "region": "LATTAKIA", "longitude": "36.232", "arabic_name": "\u0643\u0628\u0627\u0646\u0629", "latitude": "35.717", "id": 746}, {"latlon": " 35.6685N 36.151E", "name": "Kafar Ajouz ", "region": "LATTAKIA", "longitude": "36.151", "arabic_name": "\u0643\u0641\u0631 \u0627\u0644\u062c\u0648\u0632", "latitude": "35.6685", "id": 747}, {"latlon": "35\u00b044'30\"N   36\u00b010'8\"E ", "name": "Kansiba", "region": "LATTAKIA", "longitude": "36.1688888889", "arabic_name": "\u0643\u0646\u0633\u0628\u0627", "latitude": "35.7416666667", "id": 748}, {"latlon": " 35.666N 36.100E", "name": "Dorien", "region": "LATTAKIA", "longitude": "36.100", "arabic_name": "\u062f\u0648\u0631\u064a\u0646", "latitude": "35.666", "id": 749}, {"latlon": "35.7653837, 36.2161752", "name": "Marand", "region": "LATTAKIA", "longitude": "36.2161752", "arabic_name": "\u0645\u0631\u0639\u0646\u062f", "latitude": "35.7653837", "id": 750}, {"latlon": "35.790646, 36.212012", "name": "Al-Najeya", "region": "LATTAKIA", "longitude": "36.212012", "arabic_name": "\u0627\u0644\u0646\u0627\u062c\u064a\u0629", "latitude": "35.790646", "id": 751}, {"latlon": " 35.750N 36.116E", "name": "Marj al-Zawiyah", "region": "LATTAKIA", "longitude": "36.116", "arabic_name": "\u0645\u0631\u062c \u0627\u0644\u0632\u0627\u0648\u064a\u0629", "latitude": "35.750", "id": 752}, {"latlon": "35.700N 36.1165E", "name": "Maruniyat", "region": "LATTAKIA", "longitude": "36.1165", "arabic_name": "\u0627\u0644\u0645\u0627\u0631\u0648\u0646\u064a\u0627\u062a", "latitude": "35.700", "id": 753}, {"latlon": "35.733N 36.100E", "name": "Mazzin", "region": "LATTAKIA", "longitude": "36.100", "arabic_name": "\u0645\u0627\u0632\u0646 \u062f\u0631\u0648\u0628\u064a", "latitude": "35.733", "id": 754}, {"latlon": "35.5205782N 35.9300136E", "name": "Mushayrifah", "region": "LATTAKIA", "longitude": "35.9300136", "arabic_name": "\u0645\u0634\u064a\u0631\u0641\u0629 \u0627\u0644\u0633\u0627\u0645\u0648\u0643", "latitude": "35.5205782", "id": 755}, {"latlon": " 35.633N 36.2165E", "name": "Nabi Yunes", "region": "LATTAKIA", "longitude": "36.2165", "arabic_name": "\u0646\u0628\u064a\u0644 \u064a\u0648\u0646\u0633", "latitude": "35.633", "id": 756}, {"latlon": "35.4587824, 36.0573006", "name": "Qardahah", "region": "LATTAKIA", "longitude": "36.0573006", "arabic_name": "\u0627\u0644\u0642\u0631\u062f\u0627\u062d\u0629", "latitude": "35.4587824", "id": 757}, {"latlon": "35\u00b047'9\"N   36\u00b02'17\"E", "name": "Rabia", "region": "LATTAKIA", "longitude": "36.0380555556", "arabic_name": "\u0637\u0631\u064a\u0642 \u0631\u0628\u064a\u0639\u0629", "latitude": "35.7858333333", "id": 758}, {"latlon": " 35\u00b045'33\"N   36\u00b03'30\"E", "name": "Rihaniyah", "region": "LATTAKIA", "longitude": "36.0583333333", "arabic_name": "\u0627\u0644\u0631\u064a\u062d\u0627\u0646\u064a\u0629", "latitude": "35.7591666667", "id": 759}, {"latlon": "35\u00b041'8\"N   36\u00b09'2\"E", "name": "Salma", "region": "LATTAKIA", "longitude": "36.1505555556", "arabic_name": "\u0633\u0644\u0645\u0649", "latitude": "35.6855555556", "id": 760}, {"latlon": "35\u00b043'49\"N   36\u00b010'6\"E ", "name": "Shalaf", "region": "LATTAKIA", "longitude": "36.1683333333", "arabic_name": "\u0634\u0644\u0641", "latitude": "35.7302777778", "id": 761}, {"latlon": "35\u00b032'14\"N   35\u00b053'48\"E", "name": "Shalfatiyah", "region": "LATTAKIA", "longitude": "35.8966666667", "arabic_name": "\u0627\u0644\u0634\u0644\u0641\u0627\u0637\u064a\u0629", "latitude": "35.5372222222", "id": 762}, {"latlon": "35\u00b037'34\"N   36\u00b02'0\"E", "name": "Sharifah", "region": "LATTAKIA", "longitude": "36.0333333333", "arabic_name": "\u200f\u0642\u0631\u064a\u0629 \u0634\u0631\u064a\u0641\u0627", "latitude": "35.6261111111", "id": 763}, {"latlon": "35\u00b031'38\"N   35\u00b051'25\"E", "name": "Sheer", "region": "LATTAKIA", "longitude": "35.8569444444", "arabic_name": "\u0627\u0644\u0634\u064a\u0631", "latitude": "35.5272222222", "id": 764}, {"latlon": "35.750N 36.184E", "name": "Tardin", "region": "LATTAKIA", "longitude": "36.184", "arabic_name": "\u0642\u0631\u064a\u0629 \u062a\u0631\u062f\u064a\u0646", "latitude": "35.750", "id": 765}, {"latlon": "35\u00b044'36\"N   36\u00b08'41\"E", "name": "Wadi Basour", "region": "LATTAKIA", "longitude": "36.1447222222", "arabic_name": "\u0648\u0627\u062f\u064a \u0628\u0627\u0635\u0648\u0631", "latitude": "35.7433333333", "id": 766}, {"latlon": " 35.722N 36.0725E", "name": "Wadi Shaykhan", "region": "LATTAKIA", "longitude": "36.0725", "arabic_name": " \u0648\u0627\u062f\u064a \u0634\u064a\u062e\u0627\u0646", "latitude": "35.722", "id": 767}, {"latlon": "35\u00b035'58\"N   36\u00b02'35\"E ", "name": "Zanqufah", "region": "LATTAKIA", "longitude": "36.0430555556", "arabic_name": "\u0632\u0646\u0642\u0648\u0641\u0629", "latitude": "35.5994444444", "id": 768}, {"latlon": "33.126000, 35.824000", "name": "QUINETRA", "region": "QUINETRA", "longitude": "35.824000", "arabic_name": "\u0627\u0644\u0642\u0646\u064a\u0637\u0631\u0629", "latitude": "33.126000", "id": 769}, {"latlon": "33.161647, 35.928735", "name": "Jeba", "region": "QUINETRA", "longitude": "35.928735", "arabic_name": "\u062c\u0628\u0647\u0627", "latitude": "33.161647", "id": 770}, {"latlon": "33.042576, 35.870082", "name": "Bariqa", "region": "QUINETRA", "longitude": "35.870082", "arabic_name": "\u0627\u0644\u0628\u0631\u064a\u0642\u0629", "latitude": "33.042576", "id": 771}, {"latlon": "33.058978, 35.868945", "name": "BeerAjam", "region": "QUINETRA", "longitude": "35.868945", "arabic_name": "\u0628\u0626\u0631 \u0639\u062c\u0645", "latitude": "33.058978", "id": 772}, {"latlon": "33.136814, 35.962071", "name": "Masharah", "region": "QUINETRA", "longitude": "35.962071", "arabic_name": "\u0645\u0633\u062d\u0631\u0629", "latitude": "33.136814", "id": 773}, {"latlon": "33.073639, 35.917415", "name": "Majduliyah", "region": "QUINETRA", "longitude": "35.917415", "arabic_name": "\u0645\u062c\u062f\u0648\u0644\u064a\u0629", "latitude": "33.073639", "id": 774}, {"latlon": "35.958829, 38.997087", "name": "Ar-RAQQAH", "region": "QUINETRA", "longitude": "38.997087", "arabic_name": "\u0627\u0644\u0631\u0642\u0629", "latitude": "35.958829", "id": 775}, {"latlon": "35\u00b052'34\"N 39\u00b016'32\"E", "name": "al-Karamah nahiyah", "region": "QUINETRA", "longitude": "39.2755555556", "arabic_name": " \u0645\u062f\u064a\u0646\u0629 \u0627\u0644\u0643\u0631\u0627\u0645\u0629 ", "latitude": "35.8761111111", "id": 776}, {"latlon": "35\u00b045'17\"N 39\u00b036'31\"E", "name": "Ma'adan nahiyah", "region": "QUINETRA", "longitude": "39.6086111111", "arabic_name": "\u0645\u0639\u062f\u0627\u0646", "latitude": "35.7547222222", "id": 777}, {"latlon": "35\u00b048'37\"N 39\u00b015'50\"E", "name": "as-Sabkhah nahiyah", "region": "QUINETRA", "longitude": "39.2638888889", "arabic_name": " \u0646\u0627\u062d\u064a\u0629 \u0627\u0644\u0633\u0628\u062e\u0629", "latitude": "35.8102777778", "id": 778}, {"latlon": "35\u00b058'1\"N 39\u00b01'23\"E", "name": "Tal Abyad mantiqah", "region": "QUINETRA", "longitude": "39.0230555556", "arabic_name": "\u062a\u0644 \u0623\u0628\u064a\u0636", "latitude": "35.9669444444", "id": 779}, {"latlon": "36\u00b023'1\"N 38\u00b051'34\"E", "name": "Ayn Issa nahiyah", "region": "QUINETRA", "longitude": "38.8594444444", "arabic_name": "\u0639\u064a\u0646 \u0639\u064a\u0633\u0649", "latitude": "36.3836111111", "id": 780}, {"latlon": "36\u00b030'59\"N 39\u00b05'28\"E", "name": "Suluk nahiyah", "region": "QUINETRA", "longitude": "39.0911111111", "arabic_name": "\u202b\u0627\u0644\u0631\u0642\u0629 \u0633\u0644\u0648\u0643 \u202c\u200e", "latitude": "36.5163888889", "id": 781}, {"latlon": "35\u00b051'54\"N 38\u00b033'34\"E", "name": "ath-Thawrah mantiqah", "region": "QUINETRA", "longitude": "38.5594444444", "arabic_name": "\u0645\u062f\u064a\u0646\u0629 \u0627\u0644\u062b\u0648\u0631\u0629", "latitude": "35.865", "id": 782}, {"latlon": "36\u00b09'34\"N 38\u00b013'59\"E", "name": "al-Jerniyah nahiyah", "region": "QUINETRA", "longitude": "38.2330555556", "arabic_name": "\u0627\u0644\u0631\u0642\u0629 \u0627\u0644\u062c\u0631\u0646\u064a\u0629", "latitude": "36.1594444444", "id": 783}, {"latlon": "35\u00b050'22\"N 38\u00b044'33\"E", "name": "al-Mansourah nahiyah", "region": "QUINETRA", "longitude": "38.7425", "arabic_name": "\u0627\u0644\u0645\u0646\u0635\u0648\u0631\u0629", "latitude": "35.8394444444", "id": 784}, {"latlon": "36\u00b032'39\"N   38\u00b058'59\"E", "name": "Ali Bajliyah", "region": "QUINETRA", "longitude": "38.9830555556", "arabic_name": "\u0639\u0644\u064a \u0628\u0627\u062c\u0644\u064a\u0629", "latitude": "36.5441666667", "id": 785}, {"latlon": " 35\u00b049'4\"N   38\u00b012'58\"E", "name": "Dabsi Afnan", "region": "QUINETRA", "longitude": "38.2161111111", "arabic_name": "\u062f\u0628\u0633\u064a \u0639\u0641\u0646\u0627\u0646", "latitude": "35.8177777778", "id": 786}, {"latlon": "36\u00b031'16\"N   39\u00b04'56\"E", "name": "Hammam al-Turkman", "region": "QUINETRA", "longitude": "39.0822222222", "arabic_name": " \u062d\u0645\u0627\u0645 \u0627\u0644\u062a\u0631\u0643\u0645\u0627\u0646", "latitude": "36.5211111111", "id": 787}, {"latlon": " 36\u00b024'3\"N   39\u00b015'55\"E ", "name": "Kantari", "region": "QUINETRA", "longitude": "39.2652777778", "arabic_name": "\u0634\u0627\u0631\u0629 \u0642\u0646\u0637\u0627\u0631\u064a", "latitude": "36.4008333333", "id": 788}, {"latlon": " 36\u00b024'46\"N   39\u00b06'59\"E ", "name": "Mashrafiyah", "region": "QUINETRA", "longitude": "39.1163888889", "arabic_name": "\u0645\u0634\u0631\u0641\u0629 \u0627\u0644\u0647\u0632\u0627\u0639", "latitude": "36.4127777778", "id": 789}, {"latlon": "36.633N 39.2333E", "name": "Shabedagh", "region": "QUINETRA", "longitude": "39.2333", "arabic_name": "\u0634\u0627\u0628\u062f\u0627\u063a", "latitude": "36.633", "id": 790}, {"latlon": "32.7093878    36.5687496", "name": "SUWAYDA", "region": "SUWAYDA", "longitude": "36.5687496", "arabic_name": "\u0627\u0644\u0633\u0648\u064a\u062f\u0627\u0621", "latitude": "32.7093878", "id": 791}, {"latlon": "32.890255, 36.483621", "name": "Ariqah", "region": "SUWAYDA", "longitude": "36.483621", "arabic_name": "\u0639\u0631\u064a\u0642\u0629", "latitude": "32.890255", "id": 792}, {"latlon": "32.9531091, 36.4308571", "name": "Dama", "region": "SUWAYDA", "longitude": "36.4308571", "arabic_name": "\u062f\u0627\u0645\u0627", "latitude": "32.9531091", "id": 793}, {"latlon": "32\u00b023'27\"N\u00a0   36\u00b038'49\"E", "name": "al-Ghariyah", "region": "SUWAYDA", "longitude": "36.6469444444", "arabic_name": "\u0627\u0644\u063a\u0627\u0631\u064a\u0629", "latitude": "32.3908333333", "id": 794}, {"latlon": "32.9258993, 36.6743964", "name": "al-Hit", "region": "SUWAYDA", "longitude": "36.6743964", "arabic_name": "\u0627\u0644\u0647\u064a\u062a", "latitude": "32.9258993", "id": 795}, {"latlon": "32.4896582, 36.6086478", "name": "Hout", "region": "SUWAYDA", "longitude": "36.6086478", "arabic_name": "\u062d\u0648\u0637", "latitude": "32.4896582", "id": 796}, {"latlon": "32.4180871, 36.8191681", "name": "Imtan", "region": "SUWAYDA", "longitude": "36.8191681", "arabic_name": "\u0627\u0645\u062a\u0627\u0646\u200e", "latitude": "32.4180871", "id": 797}, {"latlon": "32\u00b055'1\"N   \u00a036\u00b033'8\"E", "name": "Majadel", "region": "SUWAYDA", "longitude": "36.5522222222", "arabic_name": "\u0645\u062c\u0627\u062f\u0644", "latitude": "32.9169444444", "id": 798}, {"latlon": "32\u00b030'34\"N   \u00a036\u00b050'59\"E", "name": "Malah", "region": "SUWAYDA", "longitude": "36.8497222222", "arabic_name": "\u0645\u0644\u062d", "latitude": "32.5094444444", "id": 799}, {"latlon": "32.7825337, 36.4780728", "name": "al-Mazraa", "region": "SUWAYDA", "longitude": "36.4780728", "arabic_name": "\u0627\u0644\u0645\u0632\u0631\u0639\u0629\u200e", "latitude": "32.7825337", "id": 800}, {"latlon": "32.7425363, 36.7761276", "name": "al-Mushannaf", "region": "SUWAYDA", "longitude": "36.7761276", "arabic_name": "\u0627\u0644\u0645\u0634\u0646\u0641", "latitude": "32.7425363", "id": 801}, {"latlon": "32.8248115, 36.7082749", "name": "Nimreh", "region": "SUWAYDA", "longitude": "36.7082749", "arabic_name": "\u0646\u0645\u0631\u0629\u200e", "latitude": "32.8248115", "id": 802}, {"latlon": "32.5440531, 36.5976629", "name": "al-Qurayya", "region": "SUWAYDA", "longitude": "36.5976629", "arabic_name": "\u0627\u0644\u0642\u0631\u064a\u0627\u200e", "latitude": "32.5440531", "id": 803}, {"latlon": "32.4915361, 36.7115643", "name": "Salkhid", "region": "SUWAYDA", "longitude": "36.7115643", "arabic_name": "\u0635\u0644\u062e\u062f", "latitude": "32.4915361", "id": 804}, {"latlon": "32.857096, 36.625551", "name": "Shahba", "region": "SUWAYDA", "longitude": "36.625551", "arabic_name": "\u0627\u0644\u0634\u0647\u0628\u0627\u0621", "latitude": "32.857096", "id": 805}, {"latlon": "32.8971289, 36.695745", "name": "Shaqqa", "region": "SUWAYDA", "longitude": "36.695745", "arabic_name": "\u0634\u0642\u0627\u200e", "latitude": "32.8971289", "id": 806}, {"latlon": "33\u00b02'0\"N    \u00a036\u00b034'22\"E", "name": "Surah as-Saghirah", "region": "SUWAYDA", "longitude": "36.5727777778", "arabic_name": "\u0627\u0644\u0635\u0648\u0631\u0629 \u0627\u0644\u0635\u063a\u064a\u0631\u0629", "latitude": "33.0333333333", "id": 807}, {"latlon": "32\u00b026'14\"N\u00a0   36\u00b033'52\"E", "name": "Thaybin", "region": "SUWAYDA", "longitude": "36.5644444444", "arabic_name": "\u0630\u064a\u0628\u064a\u0646", "latitude": "32.4372222222", "id": 808}, {"latlon": "34.882798, 35.882079", "name": "TARTOUS", "region": "TARTOUS", "longitude": "35.882079", "arabic_name": "\u0637\u0631\u0637\u0648\u0633", "latitude": "34.882798", "id": 809}, {"latlon": "35.183272, 35.940681", "name": "Baniyas", "region": "TARTOUS", "longitude": "35.940681", "arabic_name": "\u0628\u0627\u0646\u064a\u0627\u0633", "latitude": "35.183272", "id": 810}, {"latlon": "35\u00b07'30\"N 35\u00b056'55\"E", "name": "Bayda", "region": "TARTOUS", "longitude": "35.9486111111", "arabic_name": "\u0628\u064a\u0627\u0636\u0629", "latitude": "35.125", "id": 811}, {"latlon": "34\u00b053'34\"N\u00a0   36\u00b07'6\"E", "name": "Duraykish", "region": "TARTOUS", "longitude": "36.1183333333", "arabic_name": "\u062f\u0631\u064a\u0643\u064a\u0634", "latitude": "34.8927777778", "id": 812}, {"latlon": "34.965381N 36.221967E", "name": "Duweir Raslan", "region": "TARTOUS", "longitude": "36.221967", "arabic_name": "\u062f\u0648\u064a\u0631 \u0631\u0633\u0644\u0627\u0646", "latitude": "34.965381", "id": 813}, {"latlon": "34.900000, 36.040833", "name": "Hmein", "region": "TARTOUS", "longitude": "36.040833", "arabic_name": "\u062d\u0645\u064a\u0646", "latitude": "34.900000", "id": 814}, {"latlon": "34\u00b055'40\"N   36\u00b07'26\"E ", "name": "Juneinat Raslan", "region": "TARTOUS", "longitude": "36.1238888889", "arabic_name": "\u062c\u0646\u064a\u0646\u0629 \u0631\u0633\u0644\u0627\u0646", "latitude": "34.9277777778", "id": 815}, {"latlon": " 34\u00b052'36\"N   36\u00b015'12\"E", "name": "Mashta al-Helou", "region": "TARTOUS", "longitude": "36.2533333333", "arabic_name": "\u0645\u0634\u062a\u0649 \u0627\u0644\u062d\u0644\u0648", "latitude": "34.8766666667", "id": 816}, {"latlon": "34.716350, 36.015007", "name": "Rihaniyah", "region": "TARTOUS", "longitude": "36.015007", "arabic_name": "\u0627\u0644\u0631\u064a\u062d\u0627\u0646\u064a\u0629", "latitude": "34.716350", "id": 817}, {"latlon": "34.816956,     36.116588", "name": "Safita", "region": "TARTOUS", "longitude": "36.116588", "arabic_name": "\u0635\u0627\u0641\u064a\u062a\u0627", "latitude": "34.816956", "id": 818}]